stop_id,auth_name,bearing_code,jurisdiction,kcm_managed_equipment,route_list,num_shelters,yrly_rel,yrly_rel_mins,stop_name
10653,Seattle,W,SEA,YES,62,0,578.0824355367855,9.634707258946426,NOAA AcRd & Unnamed
12470,Seattle,N,SEA,YES,11,1,398.29392834260915,6.6382321390434855,43rd Ave E & E Madison St
30160,Seattle,W,SEA,YES,106 107 9E,1,377.50214482247304,6.291702413707884,S Henderson St & Renton Ave S
18930,Seattle,N,SEA,YES,17E,0,373.769906600967,6.22949844334945,32nd Ave NW & Loyal Way NW
29865,Seattle,E,SEA,YES,44,1,343.60754160369544,5.726792360061591,NE 45th St & Roosevelt Way NE
41981,Seattle,S,SEA,YES,193E,0,330.2024863247962,5.503374772079937,9th Ave & Spring St
29254,Seattle,S,SEA,YES,43 48 988EN,1,330.0964285714286,5.501607142857143,23rd Ave E & E Aloha St
22260,Seattle,W,SEA,YES,21 22 C,1,324.1576445150772,5.40262740858462,SW Roxbury St & 28th Ave SW
31680,Seattle,W,SEA,YES,132 60 987E,1,322.59166666666664,5.376527777777778,S Cloverdale St & 12th Ave S
3250,Seattle,E,SEA,YES,2 988E,0,312.51260162601625,5.208543360433604,E Union St & 32nd Ave
720,Seattle,N,SEA,YES,212 554EN,0,305.5069002619683,5.091781671032805,4th Ave & Stewart St
8641,Seattle,S,SEA,YES,106 48 634N 7 9E,1,300.9969107692143,5.016615179486905,Rainier Ave S & S Walker St
29240,Seattle,E,SEA,YES,255 271 43 44 48 542E 556E 65,0,293.6875306477594,4.894792177462657,NE Pacific St & 15th Ave NE
85066,Seattle,S,SEA,YES,113,0,287.5072209991561,4.791787016652602,East Marginal Way S & S Hudson St
19550,Seattle,N,SEA,YES,40,0,286.6652998236332,4.777754997060553,24th Ave NW & NW 65th St
55875,Seattle,W,SEA,YES,987E,0,284.1686507936508,4.73614417989418,S Dearborn St & Corwin Pl S
21850,Seattle,S,SEA,YES,545E,0,284.1492915438016,4.735821525730027,Airport Way S & S Royal Brougham Way
15395,Seattle,S,SEA,YES,21 50,1,283.97003308435626,4.732833884739271,1st Ave S & S Hanford St
29405,Seattle,W,SEA,YES,271 43 44 48,4,277.03919317393945,4.617319886232324,NE Pacific St & Montlake Blvd NE
15201,Unknown,S,SEA,UNK,21,0,276.1368332477425,4.602280554129042,1st Ave S & S Atlantic St
37360,Seattle,E,SEA,YES,62,1,268.1102641810241,4.468504403017068,NE 65th St & 16th Ave NE
13870,Seattle,S,SEA,YES,24 32 33 D,1,266.49168854088333,4.441528142348056,Elliott Ave W & W Galer St
56161,Seattle,S,SEA,YES,106,1,265.03105852494616,4.4171843087491025,Martin L King Jr Way S & S Othello St
40077,Seattle,S,SEA,YES,31 33,0,263.3242001155161,4.3887366685919345,Gilman Ave W & 23rd Ave W
15460,Seattle,W,SEA,YES,21,0,260.22472117117826,4.337078686186304,SW Spokane St & 26th Ave SW
30690,Seattle,S,SEA,YES,131 132,1,257.4042604660422,4.29007100776737,4th Ave S & S Holgate St
18630,Seattle,W,SEA,YES,31 32,1,256.91588465745974,4.281931410957663,W Nickerson St & 3rd Ave W
45870,Seattle,S,SEA,YES,131 132,1,255.68217073873672,4.261369512312279,4th Ave S & S Spokane St
6640,Seattle,N,SEA,YES,5 61,0,254.5469948140094,4.242449913566824,Greenwood Ave N & N 85th St
26965,Seattle,E,SEA,YES,31 32,1,254.52546102186426,4.242091017031071,N 40th St & Wallingford Ave N
31350,Seattle,N,SEA,YES,31 33,0,252.14801167238878,4.20246686120648,Thorndyke Ave W & W Blaine St
34930,Seattle,E,SEA,YES,50 987EN,0,251.71547619047618,4.195257936507937,S Genesee St & Cascadia Ave S
56031,Seattle,S,SEA,YES,106,1,251.7137366197845,4.195228943663075,Martin L King Jr Way S & S Alaska St
11060,Seattle,S,SEA,YES,43 49 60 636N 9E,0,249.09141227847414,4.151523537974569,Broadway & E Denny Way
6440,Seattle,N,SEA,YES,5,1,248.559362085873,4.14265603476455,Phinney Ave N & N 46th St
11150,Seattle,E,SEA,YES,10 12 49,0,248.29382236002505,4.138230372667084,E Pine St & Harvard Ave
2295,Seattle,W,SEA,YES,8,0,248.0419671819134,4.134032786365223,Denny Way & Dexter Ave N
29247,Seattle,E,SEA,YES,271 43 48 542E 556E,4,246.5890985186851,4.109818308644751,NE Pacific St & Montlake Blvd NE
10915,Seattle,N,SEA,YES,49,0,243.633329466697,4.060555491111617,Harvard Ave E & Eastlake Ave E
12210,Seattle,W,SEA,YES,11,0,241.5324088468793,4.025540147447988,E McGilvra St & 42nd Ave E
28470,Seattle,N,SEA,YES,28E,1,240.5426789921296,4.009044649868827,8th Ave NW & NW Market St
6237,Unknown,N,SEA,UNK,28E 5 E,2,240.29131430226272,4.004855238371046,7th Ave N & Harrison St
49733,Seattle,N,SEA,YES,132,0,239.88883195722025,3.998147199287004,8th Ave S & S Kenyon St
12487,Seattle,S,SEA,YES,4 8,0,239.5581268980466,3.9926354483007764,Martin L King Jr Way S & S Massachusetts St
17950,Seattle,N,SEA,YES,17E,0,239.44093719530358,3.990682286588393,View Ave NW & Loyal Ave NW
29280,Seattle,N,SEA,YES,43 48 988EN,1,239.35691056910568,3.989281842818428,23rd Ave E & E Aloha St
19440,Seattle,W,SEA,YES,17E 24 33,2,238.57114783681558,3.9761857972802597,Denny Way & Queen Anne Ave N
18390,Seattle,S,SEA,YES,62,0,238.1270337445288,3.968783895742147,Dexter Ave N & Harrison St
2250,Seattle,E,SEA,YES,8,1,234.67849674254282,3.9113082790423803,Denny Way & Dexter Ave
12010,Seattle,E,SEA,YES,14 8,0,234.62153638026749,3.910358939671125,S Jackson St & 23rd Ave S
45960,Seattle,S,SEA,YES,131 132,0,233.63864388201196,3.893977398033533,4th Ave S & S Front St
37460,Seattle,E,SEA,YES,62,0,233.18756047995913,3.8864593413326523,NE 65th St & 35th Ave NE
99271,Metro King County,S,SEA,YES,101 102 150 177 D E,1,231.0640137887906,3.851066896479843,SODO Busway AcRd & S Royal Brougham Way
6340,Seattle,N,SEA,YES,28E 5,1,230.50666451040036,3.841777741840006,Aurora Ramp & N 38th St
41955,Seattle,N,SEA,YES,193E 303 322,0,229.49408455563733,3.824901409260622,9th Ave & Spring St
29270,Seattle,E,SEA,YES,11 43 636 8,1,229.17132970775774,3.819522161795962,E John St & Broadway E
29540,Seattle,W,SEA,YES,44,0,228.72560069893197,3.8120933449821996,N 45th St & Stone Way N
42080,Seattle,S,SEA,YES,107 60,1,226.30023770856448,3.7716706284760746,15th Ave S & S Oregon St
21833,Seattle,S,SEA,YES,124,1,225.6170280685354,3.760283801142257,6th Ave S & S Royal Brougham Way
7350,Seattle,S,SEA,YES,62,0,225.23749738819865,3.7539582898033106,Stone Way N & N 45th St
29245,Seattle,S,SEA,YES,43 48,0,221.70191591676252,3.695031931946042,East Montlake Pl E & E Roanoke St
41989,Seattle,S,SEA,YES,43 9E,0,221.17127333792143,3.686187888965357,Boren Ave & E Yesler Way
22830,Seattle,S,SEA,YES,21 21E 50 773N C,1,220.41443997186278,3.673573999531046,35th Ave SW & SW Avalon Way
27570,Seattle,E,SEA,YES,27 8,1,217.3777277401248,3.6229621290020804,E Yesler Way & 23rd Ave S
31460,Seattle,N,SEA,YES,31 33,0,217.09941184241623,3.6183235307069372,22nd Ave W & Gilman Ave W
20890,Seattle,N,SEA,YES,24 31,0,216.27131529954278,3.6045219216590465,28th Ave W & W Blaine St
7430,Seattle,W,SEA,YES,131 132 21 28E 5 E,2,215.1339392605069,3.585565654341782,Wall St & 5th Ave
99267,Seattle,N,SEA,YES,101 102 150 177 E,1,212.9268297285943,3.5487804954765716,SODO Busway AcRd & S Royal Brougham Way
26510,Seattle,S,SEA,YES,31 32 40 62,0,212.77838381513507,3.5463063969189177,Fremont Ave N & N 34th St
24680,Seattle,W,SEA,YES,24 33,0,212.22359667626208,3.537059944604368,W Government Way & 33rd Ave W
11200,Seattle,N,SEA,YES,49 9E,1,211.62001887987853,3.527000314664642,Broadway E & E Mercer St
29600,Seattle,W,SEA,YES,44,1,211.26314584123975,3.521052430687329,N 46th St & Phinney Ave N
45780,Seattle,N,SEA,YES,131 132,1,211.2190379727473,3.520317299545788,4th Ave S & S Front St
22940,Seattle,S,SEA,YES,21 21E,1,211.06950083524833,3.5178250139208056,35th Ave SW & SW Morgan St
1370,Seattle,W,SEA,YES,27N 33,0,209.80657136692682,3.4967761894487803,Yesler Way & 3rd Ave
40802,Seattle,N,SEA,YES,113,0,209.7432212977585,3.495720354962642,East Marginal Way S & S Hudson St
36931,Unknown,W,SEA,UNK,45 62 79,1,209.32695267255517,3.488782544542586,NE 65th St & 14th Ave NE
16390,Seattle,S,SEA,YES,45 62,0,209.18915033784407,3.4864858389640676,NE Ravenna Blvd & Woodlawn Ave NE
13760,Seattle,S,SEA,YES,17E D,2,208.41799052954516,3.4736331754924192,15th Ave NW & NW Leary Way
35570,Seattle,E,SEA,YES,40 45,0,208.37544836579923,3.472924139429987,NW 85th St & 22nd Ave NW
12600,Seattle,S,SEA,YES,4 48,0,208.19998692075922,3.469999782012654,23rd Ave & E Jefferson St
31135,Seattle,E,SEA,YES,987E,0,207.5797619047619,3.4596626984126986,S Henderson St & Rainier Ave S
25752,Seattle,N,SEA,YES,255 271 542E 556E 986EN,0,207.3825703076318,3.4563761717938633,Montlake Blvd E & E Shelby St
26400,Seattle,W,SEA,YES,31 32,0,207.0255801440701,3.4504263357345013,N 40th St & Wallingford Ave N
49724,Seattle,S,SEA,YES,132,0,206.0887564872441,3.434812608120735,8th Ave S & S Monroe St
14360,Seattle,N,SEA,YES,40 D,1,205.98151237240123,3.433025206206687,15th Ave NW & NW 85th St
18465,Seattle,N,SEA,YES,62,1,205.90487673318682,3.4317479455531137,Dexter Ave N & Roy St
22160,Seattle,E,SEA,YES,128,0,205.88458473529624,3.4314097455882706,SW Orchard St & Delridge Way SW
45692,Seattle,W,SEA,YES,107,0,205.52269413611435,3.425378235601906,S Myrtle St & Beacon Ave S
28600,Seattle,N,SEA,YES,28E,0,204.04395320876304,3.400732553479384,8th Ave NW & NW 84th St
35319,Seattle,S,SEA,NO,303,0,203.4396344874264,3.3906605747904397,Northgate Station AcRd & NE 100th St
25880,Seattle,N,SEA,YES,65,1,203.33528374300286,3.3889213957167144,35th Ave NE & NE 65th St
250,Seattle,S,SEA,YES,111 113 162 177 212,0,202.46239867929918,3.374373311321653,2nd Ave & Bell St
9000,Seattle,S,SEA,YES,106 107 7,1,202.29433203648298,3.3715722006080497,Rainier Ave S & S Henderson St
28210,Seattle,S,SEA,YES,28E,1,201.32195241162813,3.3553658735271354,8th Ave NW & NW Market St
5980,Seattle,S,SEA,YES,5,1,200.6758251999483,3.344597086665805,Phinney Ave N & N 46th St
55940,Seattle,E,SEA,YES,987E,0,200.57579365079366,3.3429298941798944,S Dearborn St & Corwin Pl S
12640,Seattle,S,SEA,YES,4 48,0,199.36772344258893,3.3227953907098153,23rd Ave S & S Jackson St
6050,Seattle,S,SEA,YES,28E 5,0,198.81966410882023,3.313661068480337,SR 99 Ramp & N 38th St
1340,Seattle,E,SEA,YES,27,0,198.41247968856126,3.306874661476021,Yesler Way & Dilling Way
997,Unknown,N,SEA,UNK,162N 257 311,0,198.33620704243918,3.3056034507073195,6th Ave & Union St
6710,Seattle,N,SEA,YES,5,0,197.95194619200896,3.2991991032001495,Greenwood Ave N & N 103rd St
37840,Seattle,S,SEA,YES,79,0,197.9512307404744,3.2991871790079066,55th Ave NE & NE 68th St
5790,Seattle,S,SEA,YES,5,1,195.38005587643636,3.256334264607273,Greenwood Ave N & N 85th St
26010,Seattle,N,SEA,YES,65,0,195.32831706966482,3.25547195116108,35th Ave NE & NE 95th St
30170,Seattle,W,SEA,YES,107,1,195.05214402413398,3.2508690670688996,S Henderson St & Martin L King Jr Way S
3600,Seattle,W,SEA,YES,1 106 14N 36 7,1,194.71331520253477,3.2452219200422463,S Jackson St & 12th Ave S
21440,Seattle,W,SEA,YES,128,0,194.02371185163489,3.2337285308605814,SW Orchard St & Delridge Way SW
760,Seattle,S,SEA,YES,257N 311N 545E,0,193.70190838204917,3.2283651397008195,5th Ave & Pine St
31731,Seattle,N,SEA,YES,22 H,1,193.0374340090031,3.2172905668167187,26th Ave SW & SW Barton St
9580,Seattle,E,SEA,YES,49 70 79,1,191.34024851010665,3.189004141835111,NE Campus Pkwy & Brooklyn Ave NE
9144,Seattle,W,SEA,YES,255,0,190.97717949774136,3.1829529916290227,NE Campus Pkwy & University Way NE
10916,Seattle,S,SEA,YES,49,1,190.87136763518578,3.1811894605864297,Harvard Ave E & Eastlake Ave E
23610,Seattle,N,SEA,YES,67,0,190.80538465571405,3.1800897442619007,Roosevelt Way NE & NE 75th St
3210,Seattle,E,SEA,YES,2,0,190.60571738158401,3.1767619563597336,E Union St & 23rd Ave
10513,Seattle,N,SEA,YES,65,2,190.520422935463,3.1753403822577164,40th Ave NE & NE 46th St
23831,Unknown,N,SEA,UNK,75,0,189.90170544242403,3.1650284240404005,5th Ave NE & NE 123rd St
8330,Seattle,N,SEA,YES,7 9E,1,189.6539747702073,3.160899579503455,Rainier Ave S & S Genesee St
7210,Seattle,S,SEA,YES,E,1,189.21383563990858,3.1535639273318097,Aurora Ave N & N 65th St
31930,Seattle,S,SEA,YES,128 50,0,188.49096674031253,3.1415161123385422,California Ave SW & SW Lander St
5710,Seattle,S,SEA,YES,5,1,187.79049402789994,3.1298415671316655,Greenwood Ave N & Holman Rd N
4500,Seattle,S,SEA,YES,13,0,187.67565863464407,3.1279276439107346,Queen Anne Ave N & W Crockett St
39260,Seattle,N,SEA,YES,348,0,186.6547021651316,3.110911702752193,15th Ave NE & NE 127th St
2220,Seattle,S,SEA,YES,124 13N 14 1N 2 24N 27 33N 4 DN,1,186.61062536781714,3.110177089463619,3rd Ave & Cedar St
37940,Seattle,W,SEA,YES,62,1,186.4393951804288,3.1073232530071464,NE 65th St & 35th Ave NE
18740,Seattle,W,SEA,YES,17E 40 44,2,186.39044663994468,3.106507443999078,NW Market St & Ballard Ave NW
11358,Seattle,W,SEA,YES,31 32 48N,0,186.16039747138967,3.102673291189828,NE 45th St & University Way NE
1085,Seattle,W,SEA,YES,10 11 12 3 49,0,185.88725917260172,3.0981209862100285,Pine St & 9th Ave
625,Seattle,E,SEA,YES,62,0,185.46397754339696,3.0910662923899492,S Washington St & 4th Ave S
844,Unknown,S,SEA,UNK,106 14 257 311 36 545E 630 7,0,185.2980547679208,3.08830091279868,5th Ave S & S Weller St
2330,Seattle,N,SEA,YES,1 13 2 8 D,1,184.9023469492486,3.0817057824874765,1st Ave N & Denny Way
11080,Seattle,W,SEA,YES,10 12 49,2,184.45420180244187,3.0742366967073647,E Pine St & Broadway
29091,Seattle,W,SEA,YES,31 32,1,184.19276739990204,3.069879456665034,Childrens Hospital AcRd & 45th Ave NE
32165,Boeing Aircraft Corporation,S,SEA,YES,124,1,184.01173693538183,3.066862282256364,East Marginal Way S & 16th Ave S
36525,South Seattle Community College,N,SEA,YES,125 128,3,182.27975220160937,3.037995870026823,South Seattle College AcRd & SW Findlay St
13005,Seattle,N,SEA,YES,3 4,0,181.62500522729542,3.0270834204549235,21st Ave & E James St
10641,Seattle,N,SEA,YES,62 75,0,181.24368170258677,3.020728028376446,Sand Point Way NE & NE 74th St
8681,Seattle,S,SEA,YES,106 7 9E,1,180.4777168696075,3.0079619478267916,Rainier Ave S & S Stevens St
7730,Seattle,N,SEA,YES,E,1,180.40804124915005,3.006800687485834,Aurora Ave N & N 85th St
9141,Seattle,S,SEA,YES,70,1,180.0046929736922,3.000078216228203,Eastlake Ave E & Harvard Ave E
75409,Seattle,N,SEA,YES,E,2,179.19695581882786,2.9866159303137976,Aurora Ave N & N 46th St
6880,Seattle,N,SEA,YES,345 5,0,179.18434324434585,2.9864057207390977,Greenwood Ave N & N 145th St
700,Seattle,N,SEA,YES,101N 102N 111N 150N 177N 212N 218N 545E 554EN,0,179.03370965783265,2.9838951609638773,4th Ave & Pike St
31140,Seattle,N,SEA,YES,33,1,178.95069975231408,2.982511662538568,Discovery Park AcRd & Texas Way
14230,Seattle,N,SEA,YES,D,1,178.53726271109383,2.975621045184897,15th Ave NW & NW Market St
9605,Seattle,S,SEA,YES,31 32 65 67,1,178.51156177846238,2.9751926963077064,Roosevelt Way NE & NE 45th St
16380,Seattle,N,SEA,NO,322,0,178.14780899808602,2.9691301499681004,1st Ave NE & NE 100th St
9575,Seattle,E,SEA,YES,255 65,1,178.11688435163478,2.968614739193913,NE Campus Pkwy & University Way NE
16520,Seattle,N,SEA,YES,45 62,1,177.47900532270472,2.957983422045079,NE Ravenna Blvd & NE 70th St
26860,Seattle,N,SEA,YES,31 32 40 62,0,177.00586491101214,2.950097748516869,Fremont Ave N & N 34th St
10030,Seattle,W,SEA,YES,79,0,176.60708976051734,2.943451496008622,NE 55th St & 35th Ave NE
10562,Seattle,N,SEA,YES,75,1,176.5496583052123,2.9424943050868717,Sand Point Way NE & 40th Ave NE
10280,Seattle,N,SEA,YES,303 322 70,0,175.8487019867605,2.9308116997793414,Fairview Ave N & Denny Way
41450,Seattle,W,SEA,YES,45,1,175.1413584288285,2.9190226404804753,N 85th St & Greenwood Ave N
29231,Seattle,E,SEA,YES,44 62,1,175.07938818123642,2.9179898030206073,N 45th St & Stone Way N
30635,Seattle,N,SEA,YES,101 102 124N 131N 132N 150 177 21N 24 28E 33 5,1,174.79605083277536,2.9132675138795894,4th Ave S & S Royal Brougham Way
10640,Seattle,N,SEA,YES,62,1,174.64715944831005,2.9107859908051674,Sand Point Way NE & NE 74th St
12690,Seattle,S,SEA,YES,3,0,174.19456215289878,2.903242702548313,34th Ave & E Union St
2244,Seattle,E,SEA,YES,1 13 17E 2 24 33 8,2,173.51723512051535,2.891953918675256,Denny Way & 2nd Ave
82235,Seattle,S,SEA,YES,67,0,173.10464483648778,2.8850774139414628,Roosevelt Way NE & NE 92nd St
30538,Seattle,N,SEA,YES,131 132,0,172.94930628561232,2.8824884380935387,4th Ave S & S Spokane St
36145,Seattle,S,SEA,YES,125,0,172.91910564532122,2.881985094088687,16th Ave SW & SW Findlay St
41740,Seattle,S,SEA,YES,107 124 60,1,172.07746753308606,2.867957792218101,13th Ave S & S Bailey St
3037,Seattle,W,SEA,YES,13 2 630,0,171.9720674461789,2.8662011241029814,Seneca St & 8th Ave
32150,Seattle,N,SEA,YES,60,1,171.94895243070593,2.865815873845099,14th Ave S & S Cloverdale St
5330,Seattle,E,SEA,YES,45 61,0,171.48768417903685,2.858128069650614,N 85th St & Greenwood Ave N
75403,University of Washington,S,SEA,YES,372EN 45 67,0,171.13270065229366,2.852211677538228,East Stevens Way NE & Benton Ln
45453,Seattle,W,SEA,YES,107,0,171.0376468051283,2.850627446752138,S 114th St & Cornell Ave S
5420,Seattle,W,SEA,YES,45 61,0,170.96401005985763,2.8494001676642937,N 85th St & Wallingford Ave N
5400,Seattle,E,SEA,YES,45,1,170.4612502474251,2.8410208374570853,N 85th St & Wallingford Ave N
21450,Seattle,N,SEA,YES,H,1,170.3757795556767,2.839596325927945,Delridge Way SW & SW Myrtle St
37081,Seattle,W,SEA,YES,40 45,1,170.21701925215984,2.8369503208693305,NW 85th St & 15th Ave NW
31670,Seattle,S,SEA,YES,60,0,170.02167335605108,2.833694555934185,14th Ave S & S Cloverdale St
17694,Seattle,W,SEA,YES,345 365,1,169.83305843656424,2.8305509739427372,North Seattle College AcRd & College Way N
28080,Seattle,S,SEA,YES,28E,1,169.6672658061781,2.827787763436302,8th Ave NW & NW 85th St
840,Seattle,N,SEA,YES,257 311,2,169.359720464453,2.8226620077408833,5th Ave S & S Jackson St
300,Seattle,S,SEA,YES,101 102 113 150 162 177,3,169.31934129877396,2.8219890216462327,2nd Ave & Pike St
39443,Seattle,W,SEA,YES,22,0,168.94087653799022,2.81568127563317,SW Thistle St & 41st Ave SW
21765,Seattle,N,SEA,YES,124 545E,1,168.36429198037655,2.8060715330062758,6th Ave S & S Royal Brougham Way
26645,Seattle,S,SEA,YES,40 98N C,0,168.28658342200148,2.8047763903666914,Westlake Ave N & Harrison St
36890,Seattle,N,SEA,YES,45N,0,168.25623359520964,2.8042705599201607,15th Ave NE & NE 52nd St
39429,Seattle,W,SEA,YES,22,0,168.05212489167155,2.800868748194526,SW Thistle St & 28th Ave SW
31590,Seattle,W,SEA,YES,113 128 60,1,167.6561709203766,2.79426951533961,SW Roxbury St & 15th Ave SW
8401,Seattle,N,SEA,YES,106 7 987EN 9E,1,167.4844386496555,2.7914073108275916,Rainier Ave S & S Forest St
1530,Seattle,W,SEA,YES,1 13 14N 2N 36N 3N 4N 62 7 70,0,166.84545081939893,2.7807575136566487,S Jackson St & 5th Ave S
11352,Seattle,N,SEA,YES,271 372E 44 48 49N 542E 556E 70,1,165.84313426614716,2.7640522377691195,15th Ave NE & NE 42nd St
3860,Seattle,S,SEA,YES,36,0,165.32796698483648,2.7554661164139413,Beacon Ave S & S Spokane St
8760,Seattle,S,SEA,YES,50 7 9E,1,164.98960133444047,2.749826688907341,Rainier Ave S & S Genesee St
55780,Seattle,N,SEA,YES,106,0,164.7836010910293,2.7463933515171552,Martin L King Jr Way S & S Alaska St
12860,Seattle,W,SEA,YES,193E 3 303 322 4,1,164.71684422713687,2.745280737118948,Jefferson St & Broadway
1180,Seattle,E,SEA,YES,10 11 12 3 49,0,164.54997675686542,2.7424996126144237,Pike St & 4th Ave
40032,Seattle,W,SEA,YES,40,1,164.38636049071923,2.7397726748453204,N 105th St & Aurora Ave N
7160,Seattle,S,SEA,YES,E,1,164.12580471563052,2.735430078593842,Aurora Ave N & N 84th St
11085,Seattle,S,SEA,YES,193E 303 322,0,163.68663201263314,2.7281105335438856,Boren Ave & Madison St
30460,Seattle,W,SEA,YES,50,1,163.3083806991388,2.7218063449856467,S Columbian Way & Beacon Ave S
450,Seattle,S,SEA,YES,13N 14 17EN 1N 2 3 36 4 40N 49N 62N 7 70N,0,162.68792148912968,2.7114653581521613,3rd Ave & Union St
29262,Seattle,W,SEA,YES,11 43 8,2,162.5391038146428,2.70898506357738,E John St & Broadway E
6176,Unknown,S,SEA,UNK,28E 5 E,2,162.5080109766503,2.708466849610838,7th Ave N & Thomas St
16440,Seattle,S,SEA,YES,67,1,161.53950170239906,2.6923250283733178,Roosevelt Way NE & NE 65th St
8494,Unknown,N,SEA,UNK,106 212 554E 7 9E,2,161.50137425569892,2.6916895709283155,Rainier Ave S & S Charles St
3032,Seattle,W,SEA,YES,2,1,160.51040371559208,2.675173395259868,E Union St & Broadway
27175,Seattle,N,SEA,YES,27,0,160.42786712950684,2.6737977854917805,36th Ave S & S Day St
36940,Seattle,W,SEA,YES,45 62 79N,0,159.89890039814676,2.6649816733024463,NE 65th St & 12th Ave NE
320,Seattle,S,SEA,YES,111 212 218 550E 554E,3,159.3500041712255,2.6558334028537582,2nd Ave & Seneca St
9132,Seattle,S,SEA,YES,45 75 79,2,158.9092543779988,2.6484875729666464,University Way NE & NE 50th St
2370,Seattle,W,SEA,YES,1 32 8 D,1,158.60908834660157,2.643484805776693,Mercer St & Queen Anne Ave N
40880,Seattle,N,SEA,YES,124,1,157.9519353211534,2.6325322553525567,13th Ave S & S Bailey St
79562,Seattle,N,SEA,YES,124,0,157.53281435881664,2.6255469059802774,East Marginal Way S & 16th Ave S
20650,Seattle,N,SEA,YES,24,0,157.33992549536947,2.622332091589491,35th Ave W & W McGraw St
38730,Seattle,N,SEA,YES,65,0,156.82569349834571,2.613761558305762,30th Ave NE & NE 143rd St
400,Seattle,S,SEA,YES,124 131 132 13N 14 17EN 1N 2 21 24N 27 33N 4 56 57 DN EN,2,156.3729599119201,2.6062159985320017,3rd Ave & Bell St
433,Seattle,S,SEA,YES,124 125 131 132 24N 27 33N H,0,155.75984162544006,2.595997360424001,3rd Ave & Pike St
31230,Seattle,S,SEA,YES,31 33,1,155.28859532519647,2.5881432554199413,22nd Ave W & Gilman Ave W
8870,Seattle,S,SEA,YES,7 9E,1,154.77403737885115,2.5795672896475192,Rainier Ave S & S Graham St
1250,Seattle,W,SEA,YES,13 2,0,154.62871638291898,2.5771452730486497,Seneca St & 4th Ave
20530,Seattle,W,SEA,YES,24,0,154.2707415489852,2.57117902581642,W Emerson St & Magnolia Blvd W
41830,Seattle,N,SEA,YES,107 60,1,153.82981554238307,2.563830259039718,15th Ave S & S Oregon St
21620,Seattle,N,SEA,YES,125 50 H,1,153.70688958904574,2.5617814931507623,Delridge Way SW & SW Andover St
8590,Seattle,S,SEA,YES,106 212 554E 7 9E,3,153.6923125481762,2.5615385424696036,Rainier Ave S & S Norman St
905,Seattle,W,SEA,YES,101 102 150 218 257N 311N 545EN,0,153.66184051615855,2.561030675269309,Stewart St & Yale Ave N
2672,Seattle,S,SEA,YES,1 13 2 32N 8 D,0,153.43762599923173,2.557293766653862,Queen Anne Ave N & W Mercer St
880,Seattle,E,SEA,YES,7 70,1,153.3869532903763,2.5564492215062717,Virginia St & 6th Ave
375,Seattle,S,SEA,YES,111 212 218 550E 554E,2,152.8117963093337,2.546863271822228,2nd Ave Ext S & Yesler Way
11030,Seattle,W,SEA,YES,49 9E,0,152.77753373239725,2.546292228873287,E Roy St & Broadway E
46233,Seattle,E,SEA,YES,107,0,152.64554902211933,2.5440924837019887,S 114th St & Cornell Ave S
430,Seattle,S,SEA,YES,13N 14 17EN 1N 2 36 3N 4 40N 62N 7 70N,0,152.45942465828668,2.5409904109714447,3rd Ave & Pine St
8440,Seattle,N,SEA,YES,106 4 48 634N 7 9E,1,152.33205318594355,2.538867553099059,Rainier Ave S & S Walker St
20700,Seattle,S,SEA,YES,24 31 33,1,152.2827061703916,2.53804510283986,28th Ave W & W Blaine St
19790,Seattle,N,SEA,YES,128 22 773 C,1,151.48976603728667,2.524829433954778,California Ave SW & Fauntleroy Way SW
24360,Seattle,E,SEA,YES,24 33,0,150.98629035769417,2.516438172628236,W Government Way & 34th Ave W
3883,Seattle,S,SEA,YES,36,0,150.55359377197044,2.509226562866174,Beacon Ave S & S Columbian Way
35600,Seattle,E,SEA,YES,45,0,150.23669917618972,2.5039449862698286,NW 85th St & 15th Ave NW
12550,Seattle,N,SEA,YES,4 48 8,1,149.8539091245206,2.4975651520753437,23rd Ave S & S Jackson St
75408,Seattle,S,SEA,YES,E,2,149.67413607387365,2.494568934564561,Aurora Ave N & N 46th St
29225,Seattle,E,SEA,YES,44,1,149.44459634975735,2.4907432724959557,N 46th St & Phinney Ave N
2010,Seattle,S,SEA,YES,1,0,149.36836045310153,2.489472674218359,10th Ave W & W Armour St
619,Seattle,N,SEA,YES,124N 131N 132N 17E 21N 24 28E 33 40 5,3,149.33104697851923,2.4888507829753204,4th Ave S & S Jackson St
98105,Seattle,E,SEA,YES,7,0,149.21021000572475,2.486836833428746,Virginia St & 4th Ave
30140,Seattle,W,SEA,YES,106 107 9E,1,149.190948820454,2.486515813674233,S Henderson St & Rainier Ave S
41900,Seattle,N,SEA,YES,60 9E,1,149.03506478866726,2.4839177464777875,12th Ave S & S Jackson St
8402,Seattle,W,SEA,YES,48 634N 8 987EN,2,148.79662597871075,2.479943766311846,Mt. Baker Transfer Area AcRd & Martin L King Jr Way S
41970,Seattle,N,SEA,YES,43 60 636N 96N 9E,0,148.1679246330979,2.469465410551632,Broadway & E Pine St
1110,Seattle,W,SEA,YES,10 11 12 3 49,0,148.02379696574533,2.4670632827624224,Pine St & 5th Ave
23895,Seattle,S,SEA,YES,372E,0,146.6504590221552,2.44417431703592,25th Ave NE & NE 75th St
16430,Seattle,E,SEA,YES,45 62 79 987EN 988EN,1,146.59502937842123,2.443250489640354,NE 65th St & Roosevelt Way NE
22710,Seattle,N,SEA,YES,21 21E,1,145.2500667769548,2.4208344462825804,35th Ave SW & SW Morgan St
3700,Seattle,S,SEA,YES,36 60,1,145.09357807202815,2.418226301200469,12th Ave S & S Jackson St
3484,Seattle,N,SEA,YES,36 60,1,144.62804725244104,2.4104674542073505,Beacon Ave S & 15th Ave S
82167,Seattle,N,SEA,YES,67,0,144.60657085757484,2.410109514292914,Roosevelt Way NE & NE 92nd St
46092,Seattle,E,SEA,YES,36,0,144.11261443304613,2.4018769072174355,S Myrtle St & Beacon Ave S
10500,Seattle,E,SEA,YES,79,0,143.96088519897108,2.399348086649518,NE 55th St & 35th Ave NE
18085,Seattle,S,SEA,YES,44,2,143.51446062999685,2.391907677166614,32nd Ave NW & NW 54th St
41390,Seattle,N,SEA,YES,13N 4N,0,143.11910505430242,2.3853184175717073,3rd Ave W & W Dravus St
12805,Seattle,W,SEA,YES,193E 3 303 4,0,143.06300552662708,2.384383425443785,E Jefferson St & 18th Ave
17698,Seattle,W,SEA,YES,345 365 40 61,0,142.08113861728708,2.368018976954785,N 92nd St & Corliss Ave N
39976,Seattle,S,SEA,YES,125 60,0,142.07945677561327,2.367990946260221,25th Ave SW & SW Trenton St
9134,Seattle,S,SEA,YES,75 79,1,142.07166311158178,2.3678610518596965,University Way NE & NE 43rd St
34690,Seattle,N,SEA,YES,50,0,142.06181739256547,2.367696956542758,Seward Park Ave S & Wilson Ave S
8210,Seattle,N,SEA,YES,7 9E,1,141.87464262965784,2.364577377160964,Rainier Ave S & S Graham St
14090,Seattle,N,SEA,YES,32 D,0,141.59314852170286,2.3598858086950476,Elliott Ave W & W Galer St
43020,Seattle,W,SEA,YES,345,0,141.58898269032562,2.3598163781720936,N 130th St & Meridian Ave N
10860,Seattle,W,SEA,YES,65 75,1,141.3810020436564,2.35635003406094,NE 125th St & 35th Ave NE
590,Seattle,N,SEA,YES,124N 131N 132N 17E 21EN 21N 24 27 28E 33 40 5 56 57 62 HN,0,141.34616541733683,2.3557694236222804,3rd Ave & Pine St
3930,Seattle,E,SEA,YES,4,1,141.27353922596316,2.354558987099386,Boston St & Queen Anne Ave N
36155,Seattle,N,SEA,YES,125,1,141.15655999825967,2.352609333304328,16th Ave SW & SW Findlay St
24260,Seattle,N,SEA,YES,24,1,140.77548185941043,2.3462580309901737,34th Ave W & W McGraw St
29257,Seattle,S,SEA,YES,43 48,1,140.55030119907642,2.342505019984607,23rd Ave E & E Thomas St
21080,King County,E,SEA,YES,113 128 60,1,140.5360873831525,2.3422681230525417,SW Roxbury St & 15th Ave SW
41902,Seattle,N,SEA,YES,43 630 9E,1,140.45659889809832,2.3409433149683054,Boren Ave & E Yesler Way
22152,Seattle,S,SEA,YES,H,1,139.797976207769,2.3299662701294834,Delridge Way SW & SW Myrtle St
18220,Seattle,E,SEA,YES,13 31 32 4,1,139.76360848649568,2.329393474774928,W Nickerson St & 3rd Ave W
12497,Seattle,N,SEA,YES,4 8,1,139.5564085114438,2.3259401418573966,Martin L King Jr Way S & S Massachusetts St
27350,Seattle,W,SEA,YES,27,1,138.58805536020543,2.3098009226700906,E Yesler Way & 23rd Ave
23390,Seattle,S,SEA,YES,67,1,138.46008478613987,2.3076680797689977,Roosevelt Way NE & NE 75th St
21141,Seattle,S,SEA,YES,113 60,2,138.15714383017803,2.3026190638363007,Olson-Myers Way P&R AcRd & Olson-Myers Way P&R AcRd
9900,Seattle,S,SEA,YES,62 75,1,137.97279617464153,2.2995466029106924,Sand Point Way NE & NE 74th St
9147,Seattle,N,SEA,YES,67,1,137.65557381947215,2.294259563657869,Brooklyn Ave NE & NE Campus Pkwy
13200,Seattle,S,SEA,YES,12,1,137.33611570082394,2.288935261680399,19th Ave E & E Galer St
1120,Seattle,W,SEA,YES,10 11 12 162N 3N 49,0,137.32685697200222,2.28878094953337,Pine St & 4th Ave
8541,Unknown,E,SEA,UNK,106 14 7,0,137.01273125988507,2.2835455209980844,S Jackson St & 12th Ave S
18120,Seattle,E,SEA,YES,17E 40 44,2,136.58151879213446,2.2763586465355745,NW Market St & Ballard Ave NW
35790,Seattle,S,SEA,YES,45,0,136.37199281949307,2.272866546991551,15th Ave NE & NE 52nd St
3810,Seattle,S,SEA,YES,107 36 60,1,136.32046511224178,2.2720077518706963,Beacon Ave S & S Lander St
28030,Seattle,S,SEA,YES,28E,1,136.31052664610735,2.2718421107684557,8th Ave NW & NW 97th St
10912,Seattle,S,SEA,YES,271 372E 43 44 48 49 542E 556E 70,2,136.1101375112273,2.268502291853788,15th Ave NE & NE 43rd St
40073,Unknown,N,SEA,UNK,31 33,0,136.03718917203872,2.2672864862006454,Gilman Ave W & W Emerson Pl
5550,Seattle,S,SEA,YES,345 5,0,135.81618813338002,2.2636031355563335,Greenwood Ave N & N 145th St
40068,Seattle,E,SEA,YES,40,1,135.6880329025606,2.2614672150426767,N Northgate Way & Aurora Ave N
12910,Seattle,S,SEA,YES,193E 3 4 60,1,135.50916439763287,2.258486073293881,9th Ave & Jefferson St
3470,Seattle,N,SEA,YES,36 60,1,134.52200068380438,2.242033344730073,Beacon Ave S & S Lander St
431,Seattle,S,SEA,YES,21 21E 56 57 C DN EN,0,134.51866622580405,2.2419777704300676,3rd Ave & Pike St
75414,University of Washington,N,SEA,YES,372E 75,1,134.45153359893249,2.2408588933155413,East Stevens Way NE & Benton Ln
38235,Seattle,S,SEA,YES,522E,1,133.68042619351647,2.2280071032252744,Lake City Way NE & 20th Ave NE
3800,Seattle,S,SEA,YES,36 60,0,133.42920426050173,2.223820071008362,Beacon Ave S & S Bayview St
12485,Seattle,W,SEA,YES,4,1,133.1916114173857,2.219860190289762,S Walker St & 25th Ave S
15140,Seattle,E,SEA,YES,21,1,132.87815217813707,2.2146358696356176,SW Spokane St & 26th Ave SW
30970,Seattle,S,SEA,YES,107,0,132.8341197485055,2.213901995808425,Beacon Ave S & S Myrtle St
12880,Seattle,W,SEA,YES,193E 3 303 322 4,0,132.77360906086008,2.212893484347668,Jefferson St & 9th Ave
570,Seattle,N,SEA,YES,113 124N 131N 132N 17E 21EN 21N 24 27N 28E 33 40 5 56N 57N 62 HN,3,132.71578655249482,2.2119297758749137,3rd Ave & Union St
25240,Seattle,S,SEA,YES,255 44 988EN,2,131.93307729652432,2.1988846216087388,Montlake Blvd NE & NE Pacific Pl
2180,Seattle,S,SEA,YES,1 13 2 32 8,1,131.11263402068917,2.1852105670114863,Queen Anne Ave N & W Harrison St
24250,Seattle,S,SEA,YES,24 31,0,130.72356980305256,2.1787261633842094,34th Ave W & W McGraw St
14200,Seattle,N,SEA,YES,17E D,0,130.35427125262652,2.172571187543775,15th Ave NW & NW Leary Way
2995,Seattle,W,SEA,YES,2,0,130.3325393981757,2.172208989969595,E Union St & 23rd Ave
10914,Seattle,S,SEA,YES,271 372E 43 44 48 49 542E 556E 70,1,130.31273298438762,2.171878883073127,15th Ave NE & NE Campus Pkwy
21990,Seattle,S,SEA,YES,125 50 H,1,129.95406021564588,2.165901003594098,Delridge Way SW & SW Andover St
22850,Seattle,W,SEA,YES,50 773,1,129.2111111111111,2.1535185185185184,SW Alaska St & 35th Ave SW
39890,Seattle,E,SEA,YES,22,0,128.7550301289529,2.145917168815882,SW Thistle St & 41st Ave SW
22820,Seattle,N,SEA,YES,21 21E 50 773N C,2,128.18979253627387,2.136496542271231,35th Ave SW & SW Avalon Way
8110,Seattle,N,SEA,YES,7 9E,1,128.14041952661447,2.135673658776908,Rainier Ave S & S Rose St
76710,Seattle,S,SEA,YES,322 372E 522E 61,2,128.08026502624512,2.134671083770752,Lake City Way NE & NE 125th St
31132,Seattle,E,SEA,YES,106 107,1,127.8938026359505,2.1315633772658416,S Henderson St & Martin L King Jr Way
25797,Seattle,N,SEA,YES,372E,0,127.27441374593134,2.1212402290988557,25th Ave NE & NE 75th St
99253,Metro King County,S,SEA,YES,101 102 150 177 50,1,126.8220368539293,2.113700614232155,SODO Busway AcRd & S Spokane St
17010,Seattle,S,SEA,YES,345 365 40,1,126.66128787974182,2.1110214646623637,College Way N & N 97th St
39790,Seattle,S,SEA,YES,22,2,125.99788207338322,2.099964701223054,California Ave SW & Fauntleroy Way SW
17695,Seattle,E,SEA,YES,345 365,0,125.77484244861826,2.096247374143638,North Seattle College AcRd & College Way N
2640,Seattle,S,SEA,YES,13 2,0,124.67299416275668,2.0778832360459445,Queen Anne Ave N & W Lee St
55651,Seattle,N,SEA,YES,106,1,124.01536458721527,2.0669227431202546,Martin L King Jr Way S & S Othello St
515,Seattle,S,SEA,YES,124 131 132 13N 14 17E 1N 21 24 2N 33 36 3N 40 49N 4N 7 70N DN EN,1,123.98516784292453,2.066419464048742,3rd Ave S & S Main St
8090,Seattle,N,SEA,YES,7,1,123.01736111111111,2.050289351851852,Rainier Ave S & S Henderson St
3430,Seattle,N,SEA,YES,36,1,122.98132303544864,2.049688717257477,Beacon Ave S & S Spokane St
30340,Seattle,N,SEA,YES,36,1,122.59756248124772,2.0432927080207954,Beacon Ave S & S Myrtle St
9560,Seattle,N,SEA,YES,70,1,121.65162783492757,2.027527130582126,Eastlake Ave E & Harvard Ave E
11910,Seattle,W,SEA,YES,14,0,121.42570231096896,2.023761705182816,S Jackson St & 23rd Ave S
420,Seattle,S,SEA,YES,124 131 132 13N 14 17EN 1N 2 21 21E 24N 27 33N 4 40N 56 57 62N C DN EN H,2,121.21090576939078,2.0201817628231797,3rd Ave & Virginia St
3155,Seattle,E,SEA,YES,2,1,121.16611304801195,2.019435217466866,E Union St & Broadway
11070,Seattle,S,SEA,YES,43 49 60 636N 9E,2,120.92349597581767,2.015391599596961,Broadway & E Pine St
1690,Seattle,N,SEA,YES,1 13 2 24 33 4 D,1,120.33419394597664,2.0055698990996107,3rd Ave & Vine St
17022,Seattle,E,SEA,YES,345 365 40 61,0,120.32722819511531,2.005453803251922,N 92nd St & Corliss Ave N
2940,Seattle,W,SEA,YES,2 988EN,1,119.43449067360439,1.990574844560073,E Union St & 33rd Ave
16860,Seattle,S,SEA,YES,345 365,0,119.38686070591386,1.989781011765231,Meridian Ave N & N 130th St
9978,Seattle,S,SEA,YES,45 65 67 75,1,119.23018034697017,1.987169672449503,Sand Point Way NE & 40th Ave NE
30453,Federal Government,E,SEA,YES,50,0,119.18180961791084,1.9863634936318475,VA Hospital AcRd & S Oregon St
46130,Seattle,E,SEA,YES,50,0,118.58439587723002,1.9764065979538337,S Othello St & 42nd Ave S
3150,Seattle,E,SEA,YES,193E 2,0,118.17664182772276,1.9696106971287126,Seneca St & 8th Ave
9670,Seattle,E,SEA,YES,65 75,1,117.94004441012801,1.965667406835467,NE 125th St & Lake City Way NE
25110,Seattle,S,SEA,YES,65,1,117.76500728058761,1.9627501213431269,35th Ave NE & NE 65th St
17960,Seattle,S,SEA,YES,17E,1,117.22711316031749,1.9537852193386247,32nd Ave NW & NW 85th St
23561,Seattle,N,SEA,YES,522E 67,1,117.0315619721504,1.9505260328691734,12th Ave NE & NE 67th St
35318,Seattle,S,SEA,NO,322 345 348 365 40 61,0,116.9666907145636,1.9494448452427267,Northgate Station AcRd & NE 103rd St
7950,Seattle,S,SEA,YES,7,0,116.62654052268743,1.943775675378124,62nd Ave S & S Prentice St
19670,Seattle,N,SEA,YES,C,2,116.38093857556798,1.9396823095927997,Fauntleroy Way SW & SW Barton St
12780,Seattle,W,SEA,YES,3 4,1,115.92537060918741,1.9320895101531235,E Jefferson St & 23rd Ave
99252,Metro King County,N,SEA,YES,101 102 150 177 50,1,115.57647022884538,1.9262745038140896,SODO Busway AcRd & S Spokane St
10911,Seattle,E,SEA,YES,31 32 372E 43 44 48 49 70,0,115.57247398790662,1.9262078997984438,NE 45th St & University Way NE
11132,Seattle,E,SEA,YES,10 11 12 3 49,1,115.47789405483489,1.9246315675805816,Pike St & Boren Ave
29249,Seattle,S,SEA,YES,43 48,1,115.42845528455285,1.923807588075881,24th Ave E & Boyer Ave E
25000,Seattle,S,SEA,YES,65,1,114.41673334536452,1.9069455557560753,35th Ave NE & NE 94th St
1610,Seattle,N,SEA,YES,1 13 14N 2N 36N 3N 4N 70 7N D E,3,114.24641061922627,1.9041068436537711,Prefontaine Pl S & Yesler Way
99261,Metro King County,W,SEA,YES,50,0,114.11576765051042,1.9019294608418404,S Lander St & SODO Busway AcRd
18785,Seattle,W,SEA,YES,44,0,114.03704481792717,1.9006174136321194,NW Market St & 30th Ave NW
37130,Seattle,S,SEA,YES,128 775,1,113.79854136990474,1.896642356165079,California Ave SW & SW Hill St
41930,Seattle,N,SEA,YES,60,1,113.75993047148754,1.895998841191459,9th Ave & Alder St
39983,Seattle,W,SEA,YES,22 H,1,113.46921525142182,1.8911535875236969,SW Barton St & 25th Ave SW
32011,Seattle,W,SEA,YES,128 50,2,113.28029024197784,1.8880048373662972,SW Alaska St & 44th Ave SW
39955,Seattle,E,SEA,YES,22,0,112.88759976039111,1.8814599960065186,SW Thistle St & 28th Ave SW
29242,Seattle,E,SEA,YES,44N 65,1,112.0850096144624,1.8680834935743733,NE Pacific Pl & NE Pacific St
1480,Seattle,E,SEA,YES,106 14 36 554E 7,1,112.03986643030434,1.8673311071717391,S Jackson St & Maynard Ave S
15190,Seattle,N,SEA,YES,21 50,1,111.60729708177493,1.860121618029582,1st Ave S & S Spokane St
16419,Seattle,N,SEA,YES,79,0,111.20354706315553,1.853392451052592,8th Ave NE & NE 64th St
3380,Seattle,N,SEA,YES,36,1,111.17717064824147,1.852952844137358,Beacon Ave S & S Columbian Way
38910,Seattle,S,SEA,YES,348,1,110.9625407461517,1.8493756791025284,15th Ave NE & NE 125th St
41255,Seattle,S,SEA,YES,13 4,1,110.91194702460419,1.8485324504100697,3rd Ave W & W Dravus St
75405,University of Washington,W,SEA,YES,372EN 45 67,1,110.07503887743835,1.834583981290639,West Stevens Way NE & George Washington Ln NE
22264,Seattle,S,SEA,YES,21E 22,0,110.01142100313488,1.8335236833855815,35th Ave SW & SW 97th St
13600,Seattle,S,SEA,YES,D,0,108.89687290356049,1.8149478817260083,15th Ave NW & NW 85th St
22560,Seattle,N,SEA,YES,21 21E C,1,108.46099526462051,1.8076832544103418,35th Ave SW & SW Roxbury St
29261,Seattle,W,SEA,YES,11 43 8,0,107.96402152425183,1.7994003587375305,E John St & 15th Ave E
16570,Seattle,N,SEA,YES,365,0,107.8650755964182,1.7977512599403032,Meridian Ave N & N 145th St
10910,Seattle,S,SEA,YES,372E 48,1,107.85478373432973,1.7975797289054956,12th Ave NE & NE 47th St
9690,Seattle,E,SEA,YES,65 75,1,107.50157550389817,1.7916929250649694,NE 125th St & 35th Ave NE
13721,Seattle,S,SEA,YES,D,0,106.97467286462916,1.782911214410486,15th Ave NW & NW Market St
31920,Seattle,S,SEA,YES,128 50,1,106.06960035356278,1.7678266725593796,California Ave SW & SW Admiral Way
39464,Seattle,N,SEA,YES,57,0,105.75294518699691,1.7625490864499485,55th Ave SW & SW Dakota St
16800,Seattle,S,SEA,YES,365,0,105.66493418148869,1.7610822363581449,Meridian Ave N & N 145th St
1050,Seattle,E,SEA,YES,212 218 257 311 545E,0,105.58467612881304,1.759744602146884,Olive Way & 8th Ave
38050,Seattle,S,SEA,YES,65,0,104.95356938064735,1.7492261563441225,30th Ave NE & NE 143rd St
19930,Seattle,N,SEA,YES,21 773 C,1,104.94496313168678,1.7490827188614462,SW Avalon Way & SW Yancy St
9582,Seattle,N,SEA,YES,45 79,1,104.64961208291832,1.7441602013819721,University Way NE & NE 43rd St
15540,Seattle,W,SEA,YES,50 56 57 775,1,104.36894397127502,1.7394823995212503,SW Admiral Way & California Ave SW
28680,Seattle,N,SEA,YES,28E D,1,102.7559438434749,1.712599064057915,NW 100th Pl & 7th Ave NW
31910,Seattle,N,SEA,YES,128 50,0,102.19357426372412,1.7032262377287353,California Ave SW & SW Lander St
37090,Seattle,E,SEA,YES,128,1,102.05926769531273,1.7009877949218788,SW Atlantic St & 44th Ave SW
18440,Seattle,E,SEA,YES,40 554E C,0,100.84385221351594,1.6807308702252657,Blanchard St & 6th Ave
1920,Seattle,W,SEA,YES,554E,0,100.4894824758911,1.6748247079315182,Lenora St & 4th Ave
43095,Private Owner,N,SEA,YES,345,0,100.04883057285966,1.667480509547661,Four Freedoms Home AcRd & Four Freedoms Home AcRd
15060,Seattle,E,SEA,YES,56 57,1,100.01454963051951,1.6669091605086586,SW Admiral Way & California Ave SW
38653,Seattle,W,SEA,YES,372E 61,1,100.00584048008024,1.6667640080013373,NE 130th St & 35th Ave NE
11190,Seattle,N,SEA,YES,49 60 9E,0,99.52446454607144,1.6587410757678573,Broadway E & E Harrison St
29423,Seattle,N,SEA,YES,79,0,99.10348600860526,1.6517247668100876,Brooklyn Ave NE & NE Pacific St
32120,Seattle,E,SEA,YES,132 60 987E,1,98.79761904761905,1.6466269841269843,S Cloverdale St & 8th Ave S
22557,Seattle,E,SEA,YES,21 C,1,98.63171736919115,1.6438619561531858,SW Barton St & 26th Ave SW
36960,Seattle,W,SEA,YES,45 62 79,2,98.5984778371042,1.6433079639517367,NE 65th St & Oswego Pl NE
12842,Seattle,N,SEA,YES,322,0,98.51308313798134,1.6418847189663557,12th Ave & E Terrace St
76660,Seattle,S,SEA,YES,322 372E 522E,1,98.50833329791503,1.6418055549652506,Lake City Way NE & NE 145th St
31811,Seattle,E,SEA,YES,128 50 57 773,3,98.31409942465402,1.6385683237442337,SW Alaska St & 44th Ave SW
99263,Metro King County,S,SEA,YES,101 102 150 177 50,1,98.1815566587946,1.6363592776465767,SODO Busway AcRd & S Lander St
41890,Seattle,E,SEA,YES,107,0,98.18080504311418,1.6363467507185696,S Lander St & 15th Ave S
22380,Seattle,E,SEA,YES,21E 22,0,98.01204828511786,1.6335341380852977,SW 106th St & California Ave SW
22261,Seattle,W,SEA,YES,21 22,0,98.00804837000612,1.6334674728334353,SW Roxbury St & 30th Ave SW
37849,Seattle,W,SEA,YES,62 79,1,97.09093492561087,1.6181822487601811,NE 65th St & Sand Point Way NE
605,Seattle,N,SEA,YES,1 124 13 131 132 17E 2 24 28E 33 4 5 D E,2,96.83321259696662,1.6138868766161103,3rd Ave & Bell St
12980,Seattle,E,SEA,YES,193E 3 303 4,1,96.44000984231825,1.6073334973719708,E Jefferson St & 17th Ave
75304,Seattle,W,SEA,YES,981EN 982EN 986EN 987EN 988EN 989EN,0,96.37561741734278,1.6062602902890464,NE 135th St & 1st Ave NE
548,Seattle,N,SEA,YES,113N 124N 131N 132N 17E 21EN 21N 24 27N 28E 33 40 5 56N 57N 62 HN,0,96.2753089705797,1.604588482842995,3rd Ave & Madison St
9135,Seattle,S,SEA,YES,48,0,95.70254117801727,1.5950423529669544,University Way NE & NE 52nd St
36390,Seattle,N,SEA,YES,22,1,95.50499525217539,1.5917499208695898,44th Ave SW & SW Alaska St
8403,Seattle,W,SEA,YES,14,1,95.36520468825694,1.5894200781376155,Mt. Baker Transfer Area AcRd & Martin L King Jr Way S
55583,Seattle,N,SEA,YES,106 9E,1,95.19779968681502,1.5866299947802502,Martin L King Jr Way S & S Henderson St
35530,Seattle,W,SEA,YES,45,1,94.49857212310327,1.5749762020517213,Loyal Way NW & NW 85th St
29243,Seattle,E,SEA,YES,44,0,94.32982036022364,1.572163672670394,NE Pacific Pl & NE Pacific St
481,Seattle,S,SEA,YES,125 21E 56 57 C H,0,93.97625193786446,1.5662708656310744,3rd Ave & Columbia St
31137,Seattle,E,SEA,YES,7,0,93.84090917800899,1.5640151529668165,S Henderson St & Rainier Ave S
1471,Seattle,E,SEA,YES,1 106 13 14 2 3 36 4 49 7 70,3,92.88240965112604,1.5480401608521006,S Jackson St & 5th Ave S
36680,Seattle,E,SEA,YES,50,0,92.81441967335756,1.5469069945559595,S Columbian Way & Beacon Ave S
2361,Unknown,E,SEA,UNK,32,0,92.79465306405521,1.5465775510675868,Republican St & 1st Ave N
2740,Seattle,N,SEA,YES,13 2,0,92.5750123827887,1.5429168730464784,Queen Anne Ave N & W Lee St
620,Seattle,N,SEA,YES,101N 102N 111N 150N 177N 212N 218N 545E 550EN 554EN,2,92.4906591439507,1.5415109857325116,4th Ave S & S Jackson St
9587,Seattle,W,SEA,YES,372E 44 49 70,0,91.44848916297646,1.5241414860496076,NE 43rd St & Brooklyn Ave NE
4489,Unknown,N,SEA,UNK,13,0,91.16121366497376,1.5193535610828959,Queen Anne Ave N & W Howe St
35825,Seattle,N,SEA,YES,43 48,1,90.9731150403306,1.51621858400551,23rd Ave E & E John St
510,Seattle,W,SEA,YES,E,0,90.87444255219124,1.5145740425365206,S Washington St & 3rd Ave S
575,Seattle,N,SEA,YES,1 125N 13 14N 2 3 36 4 70 7N C D E,2,90.52462400961099,1.5087437334935165,3rd Ave & Pike St
37150,Seattle,N,SEA,YES,128,0,89.16985225858734,1.486164204309789,California Ave SW & SW Admiral Way
17710,Seattle,N,SEA,YES,345 365 40,1,89.16510830822592,1.486085138470432,College Way N & N 97th St
340,Seattle,S,SEA,YES,101 102 113 150 162 177,2,89.00204998386367,1.483367499731061,2nd Ave & Marion St
1215,Seattle,W,SEA,YES,550E,3,87.62568904877588,1.4604281508129313,Union St & 5th Ave
10658,Federal Government,W,SEA,YES,62,0,86.4551931403749,1.440919885672915,NOAA AcRd & NOAA AcRd
34910,Seattle,E,SEA,YES,50,1,86.01059374761006,1.433509895793501,S Genesee St & 36th Ave S
2550,Seattle,S,SEA,YES,2,1,84.24588885903323,1.4040981476505539,7th Ave W & W Pleasant Pl
6950,Seattle,S,SEA,YES,E,1,83.75494937726825,1.3959158229544708,Aurora Ave N & N 145th St
4370,Seattle,W,SEA,YES,4,0,83.41743330110245,1.3902905550183742,Boston St & 1st Ave N
2690,Seattle,N,SEA,YES,13 2,1,83.10344263436369,1.3850573772393948,1st Ave N & Mercer St
1558,Unknown,W,SEA,UNK,113 125 21E 56 57 C H,1,82.58382401078673,1.3763970668464454,Columbia St & Alaskan Way
390,Seattle,S,SEA,YES,101 102 150 162 177,2,82.3927257025408,1.3732120950423468,2nd Ave Ext S & S Jackson St
19898,Seattle,S,SEA,YES,21 773 C,1,82.01739640034164,1.3669566066723606,SW Avalon Way & SW Bradford St
19240,Seattle,S,SEA,YES,40,1,81.9128011263428,1.3652133521057133,24th Ave NW & NW 85th St
34544,Seattle,W,SEA,YES,106N 987E,1,81.45888306392894,1.3576480510654823,S Henderson St & Rainier Ave S
35110,Seattle,S,SEA,YES,50,0,80.98597973234584,1.3497663288724306,Seward Park Ave S & S Morgan St
20250,Seattle,S,SEA,YES,C,1,80.29904637434248,1.3383174395723747,Fauntleroy Way SW & SW Barton St
11130,Seattle,E,SEA,YES,550E,0,79.7199841192472,1.3286664019874534,Pike St & 9th Ave
1540,Seattle,W,SEA,YES,3 4,0,79.64156225933883,1.3273593709889804,James St & 5th Ave
10328,Seattle,W,SEA,YES,C,0,77.54727402743195,1.2924545671238659,Valley St & Fairview Ave N
76700,Seattle,S,SEA,YES,322 372E 522E 61,1,77.54168513011382,1.2923614188352304,Lake City Way NE & NE 130th St
39980,Seattle,S,SEA,YES,125 60,1,77.46446940102513,1.2910744900170854,25th Ave SW & SW Henderson St
11690,Seattle,N,SEA,YES,14,1,77.01444066934636,1.2835740111557725,Mount Rainier Dr S & 37th Pl S
1560,Seattle,E,SEA,YES,3 4,2,75.792497784780707,1.2632082964130118,James St & 3rd Ave
29380,Seattle,N,SEA,YES,43 48,0,75.55475045673523,1.2592458409455873,East Montlake Pl E & E Roanoke St
1073,Unknown,E,SEA,UNK,545E,0,71.64945427363641,1.1941575712272734,Olive Way & Boren Ave
11191,Seattle,S,SEA,YES,60,0,69.83593851334697,1.163932308555783,10th Ave E & E Mercer St
11012,Seattle,E,SEA,YES,9E,0,69.14447359761388,1.1524078932935646,E Aloha St & Broadway E
14960,Seattle,N,SEA,YES,50 56 775,1,68.86994511821189,1.1478324186368647,Alki Ave SW & 61st Ave SW
20910,Seattle,N,SEA,YES,31,0,68.49119950298017,1.1415199917163361,Condon Way W & W Crockett St
26715,Seattle,N,SEA,YES,40 C,0,66.39215411255411,1.1065359018759018,Westlake Ave N & Harrison St
600,Seattle,N,SEA,YES,1 124N 13 131N 132N 14 17E 2 21E 24 28E 3 33 4 40 5 62 C D E H,0,66.3164876740213,1.1052747945670218,3rd Ave & Virginia St
20041,Seattle,W,SEA,YES,C,0,65.57078723818286,1.0928464539697142,SW Alaska St & California Ave SW
56151,Seattle,S,SEA,YES,106 36,0,65.38717568332898,1.0897862613888163,Martin L King Jr Way S & S Myrtle St
10225,Seattle,S,SEA,YES,303 322 70,0,64.93276049957565,1.0822126749929275,Fairview Ave N & Thomas St
2580,Seattle,S,SEA,YES,2,1,64.70477057489663,1.0784128429149438,6th Ave W & W Crockett St
45648,Seattle,N,SEA,YES,50,0,64.46278931782089,1.0743798219636815,38th Ave S & S Myrtle St
19862,Seattle,E,SEA,YES,C,2,63.353530117372166,1.0558921686228695,SW Alaska St & California Ave SW
26730,Seattle,N,SEA,YES,40 C,1,62.93323111462887,1.0488871852438144,Westlake Ave N & Mercer St
16914,Seattle,W,SEA,YES,345 365,1,60.9978356432778,1.01663059405463,Northwest Hospital AcRd & Hospital AcRd
29273,Seattle,E,SEA,YES,11 43 8,1,58.17584669335605,0.9695974448892675,E John St & 15th Ave E
11680,Seattle,N,SEA,YES,14,0,57.83384601280081,0.9638974335466802,Mount Rainier Dr S & S Hanford St
35317,Seattle,N,SEA,NO,345 348 365 40 61 67 75,0,54.43268021894146,0.9072113369823576,1st Ave NE & NE 103rd St
2850,Seattle,E,SEA,YES,2,1,53.37352617360362,0.8895587695600604,Madrona Park & Lake Washington Blvd
22255,Seattle,W,SEA,YES,113,1,51.142422299670486,0.852373704994508,SW Roxbury St & Delridge Way SW
1710,Seattle,E,SEA,YES,D,1,51.015454158077,0.8502575693012833,Terrace St & 5th Ave
19320,Seattle,S,SEA,YES,40,1,50.74889328316831,0.8458148880528051,24th Ave NW & NW 65th St
76730,Seattle,N,SEA,YES,322 372E 522E 61,1,50.470295775046935,0.8411715962507823,Lake City Way NE & NE 130th St
11370,Seattle,S,SEA,YES,10,0,49.73456308372601,0.8289093847287669,15th Ave E & E Galer St
22553,Seattle,E,SEA,YES,21 C,0,41.07619555014795,0.6846032591691326,SW Barton St & 35th Ave SW
18760,Seattle,W,SEA,YES,17E 44,0,41.06052813381245,0.6843421355635407,NW Market St & 28th Ave NW
9650,Seattle,N,SEA,YES,372E 48N 67,1,39.50317279935384,0.658386213322564,11th Ave NE & NE 45th St
45649,Seattle,E,SEA,YES,36,0,37.234445545065064,0.6205740924177511,S Myrtle St & 39th Ave S
11570,Seattle,N,SEA,YES,10,0,32.63809523809524,0.543968253968254,15th Ave E & E Republican St
23170,Seattle,S,SEA,YES,75,1,27.19628844990785,0.45327147416513086,5th Ave NE & NE 123rd St
45651,Seattle,W,SEA,YES,36 50,1,23.97733659234661,0.39962227653911014,S Othello St & Martin L King Jr Way S
13460,Seattle,N,SEA,YES,11 3,1,22.78561305095407,0.37976021751590117,Bellevue Ave & E Olive St
691,Unknown,N,SEA,UNK,101 102 150 550E,0,20.928782794045393,0.34881304656742324,4th Ave & Union St
12770,Seattle,S,SEA,YES,3 48 4N,1,18.88292682926829,0.3147154471544715,23rd Ave & E Cherry St
25755,Unknown,N,SEA,YES,255 542E 556E 982E 988EN,1,18.269148853758654,0.3044858142293109,Montlake Blvd NE & NE Pacific Pl
29420,Seattle,W,SEA,YES,255 271N 44 48 542E 556E,0,17.072778342311345,0.2845463057051891,NE Pacific St & 15th Ave NE
9050,Seattle,S,SEA,YES,7,0,10.389146825396825,0.1731524470899471,Waters Ave S & S Fletcher St
558,Seattle,N,SEA,YES,1 125 13 14N 2N 3 36N 4 70 7N C D E,0,4.9050624729051675,0.08175104121508613,3rd Ave & Seneca St
81294,Seattle,N,SEA,YES,981EN 982EN 986EN 987EN 988EN 989EN,0,-2.546578996237084,-0.042442983270618066,1st Ave NE & NE 140th St
1404,Unknown,E,SEA,UNK,E,0,-6.228674680047935,-0.10381124466746558,S Washington St & 3rd Ave S
23421,Seattle,S,SEA,YES,522E 67,1,-9.688189941048469,-0.1614698323508078,Roosevelt Way NE & NE 66th St
99254,Metro King County,N,SEA,YES,101 102 150 177,1,-20.41521095457607,-0.3402535159096012,SODO Busway AcRd & S Lander St
1040,Seattle,E,SEA,YES,101N 102N 111N 150N 177N 212N 218N,2,-27.569494057906617,-0.45949156763177695,Olive Way & 6th Ave
32013,Seattle,N,SEA,YES,57,0,-33.954881612640236,-0.5659146935440039,44th Ave SW & 44th Ave SW
1570,Seattle,E,SEA,YES,3 4,1,-36.512366959082655,-0.6085394493180443,James St & 5th Ave
25798,Seattle,N,SEA,YES,372E 982EN 986EN 987EN 988EN 989EN,1,-36.52459591470097,-0.6087432652450161,25th Ave NE & NE 80th St
5880,Seattle,S,SEA,YES,5,1,-39.77445849918915,-0.6629076416531525,Phinney Ave N & N 65th St
39530,Seattle,S,SEA,YES,57,0,-51.40182020548633,-0.8566970034247722,55th Ave SW & SW Dakota St
12841,Seattle,S,SEA,YES,322,0,-57.03369027493342,-0.9505615045822237,12th Ave & E Alder St
10325,Seattle,N,SEA,YES,70 C,1,-64.15443371582597,-1.0692405619304328,Fairview Ave N & Valley St
1010,Seattle,E,SEA,NO,111 177,0,-85.2754514014944,-1.4212575233582398,Howell St & Minor Ave
9586,Seattle,W,SEA,YES,48,0,-89.19968813060096,-1.4866614688433493,NE 50th St & University Way NE
29431,Seattle,S,SEA,YES,79,0,-145.76884196025856,-2.4294806993376428,15th Ave NE & NE Pacific St
29455,Seattle,W,SEA,YES,44,1,-169.02782315337984,-2.817130385889664,NE 45th St & 9th Ave NE
79561,Seattle,N,SEA,YES,124 60,0,NA,NA,East Marginal Way S & 14th Ave S
79569,Seattle,S,SEA,YES,124 60,0,NA,NA,East Marginal Way S & S Webster St
81361,Seattle,N,SEA,YES,348,0,NA,NA,Pinehurst Way NE & NE 115th St
81364,Seattle,E,SEA,YES,322 348 61 67,0,NA,NA,NE Northgate Way & 5th Ave NE
81367,Seattle,E,SEA,YES,322 61,0,NA,NA,NE Northgate Way & Roosevelt Way NE
81368,Seattle,N,SEA,YES,348,1,NA,NA,Roosevelt Way NE & NE 111th St
75320,King County,W,SEA,YES,333 365,0,NA,NA,NE 145th St & 1st Ave NE
76731,Unknown,N,SEA,YES,61,0,NA,NA,Lake City Way NE & NE 135th St
76750,Seattle,N,SEA,YES,322 372E 522E,0,NA,NA,Lake City Way NE & Erickson Pl NE
75350,King County,W,SEA,YES,333,0,NA,NA,N 145th St & Courtland Pl N
75360,King County,W,SEA,YES,333,0,NA,NA,N 145th St & Interlake Ave N
75380,King County,W,SEA,YES,333,0,NA,NA,N 145th St & Linden Ave N
75390,King County,W,SEA,YES,333,0,NA,NA,N 145th St & Dayton Ave N
75402,University of Washington,W,SEA,YES,372EN 45 67,1,NA,NA,East Stevens Way NE & Mason Rd
76720,Seattle,N,SEA,YES,322 372E 522E 61,0,NA,NA,Lake City Way NE & NE 125th St
76680,Seattle,S,SEA,YES,322 372E 522E,1,NA,NA,Lake City Way NE & NE 137th St
75404,University of Washington,W,SEA,YES,372EN 45 67,0,NA,NA,West Stevens Way NE & Okanogan Ln NE
75406,Seattle,S,SEA,YES,372E 45 67,1,NA,NA,East Stevens Way NE & Pend Oreille Rd
75407,Seattle,E,SEA,YES,44,1,NA,NA,NW Market St & 3rd Ave NW
75410,Seattle,N,SEA,YES,372E 75,2,NA,NA,East Stevens Way NE & Pend Oreille Rd
75415,University of Washington,E,SEA,YES,372E 75,1,NA,NA,East Stevens Way NE & Rainier Vis NE
75170,Seattle,E,SEA,YES,333,0,NA,NA,N 145th St & Evanston Ave N
75200,Seattle,E,SEA,YES,333,0,NA,NA,N 145th St & Interlake Ave N
75210,Seattle,E,SEA,YES,333,0,NA,NA,N 145th St & Courtland Pl N
75240,Seattle,E,SEA,YES,333 365,0,NA,NA,NE 145th St & 1st Ave NE
75417,University of Washington,E,SEA,YES,372E 75,0,NA,NA,West Stevens Way NE & Garfield Ln
75418,Unknown,S,SEA,UNK,372E 75,1,NA,NA,West Stevens Way NE & Asotin Pl
99256,Metro King County,N,SEA,NO,599N,0,NA,NA,ST Light Rail & S Lander St
99101,Metro King County,S,SEA,NO,599N,0,NA,NA,ST Light Rail & S Royal Brougham Way
99111,Metro King County,S,SEA,NO,599,0,NA,NA,ST Light Rail & S Lander St
99121,Metro King County,S,SEA,NO,599,0,NA,NA,ST Light Rail & Beacon Ave S
99600,Unknown,N,SEA,NO,599,0,NA,NA,Northgate Sta Rail & ST Light Rail
99602,Unknown,S,SEA,NO,599,0,NA,NA,Northgate Sta Rail & ST Light Rail
99603,Seattle,N,SEA,YES,599,0,NA,NA,Capitol Hill Sta AcRd & Pedestrian Stair
99604,Seattle,S,SEA,YES,599,0,NA,NA,University of WA Sta AcRd & Transit Tunnel AcRd
99605,Seattle,S,SEA,YES,599,0,NA,NA,University of WA Sta AcRd & Pedestrian Tunnel Walk
99606,Unknown,S,SEA,NO,599,0,NA,NA,U District Sta Rail & ST Light Rail
99607,Unknown,N,SEA,NO,599,0,NA,NA,U District Sta Rail & ST Light Rail
99608,Unknown,S,SEA,NO,599,0,NA,NA,Roosevelt Sta Rail & ST Light Rail
99609,Unknown,N,SEA,NO,599,0,NA,NA,Roosevelt Sta Rail & ST Light Rail
82279,Seattle,E,SEA,YES,79,0,NA,NA,NE 75th St & 36th Ave NE
82227,Seattle,S,SEA,YES,67,1,NA,NA,Roosevelt Way NE & NE 95th St
82230,Seattle,E,SEA,YES,65,1,NA,NA,NE 145th St & 15th Ave NE
82237,Seattle,S,SEA,YES,67,0,NA,NA,Roosevelt Way NE & NE 90th St
82247,Seattle,S,SEA,YES,67,0,NA,NA,Roosevelt Way NE & NE 85th St
85062,Seattle,S,SEA,YES,113,0,NA,NA,East Marginal Way S & Diagonal Ave S
85064,Seattle,S,SEA,YES,113,1,NA,NA,East Marginal Way S & S Alaska St
85067,Seattle,S,SEA,YES,113,0,NA,NA,East Marginal Way S & S Lucile St
96760,Seattle,N,SEA,YES,8,1,NA,NA,Martin L King Jr Way & E Union St
99240,Seattle,W,SEA,NO,599N,0,NA,NA,ST Light Rail & Beacon Ave S
99610,Seattle,S,SEA,YES,599,0,NA,NA,Capitol Hill Sta AcRd & Transit Tunnel AcRd
82266,Seattle,E,SEA,YES,79,0,NA,NA,NE 75th St & 16th Ave NE
82273,Seattle,E,SEA,YES,79,0,NA,NA,NE 75th St & 30th Ave NE
82275,Seattle,E,SEA,YES,79,0,NA,NA,NE 75th St & 20th Ave NE
82276,Seattle,E,SEA,YES,79,0,NA,NA,NE 75th St & 25th Ave NE
85203,Seattle,E,SEA,YES,22,0,NA,NA,SW 106th St & 35th Ave SW
55400,Seattle,N,SEA,YES,107,0,NA,NA,Beacon Ave S & S Augusta St
55410,Seattle,N,SEA,YES,107,0,NA,NA,Beacon Ave S & S Avon St
55420,Seattle,N,SEA,YES,107,1,NA,NA,Beacon Ave S & S Leo St
55430,Seattle,N,SEA,YES,107,0,NA,NA,51st Ave S & S Hazel St
55450,Seattle,N,SEA,YES,107,0,NA,NA,51st Ave S & S Ryan St
55460,Seattle,N,SEA,YES,107,0,NA,NA,51st Ave S & S Gazelle St
55470,Seattle,N,SEA,YES,107,0,NA,NA,51st Ave S & S Bond St
55472,Seattle,N,SEA,YES,106 107,0,NA,NA,51st Ave S & Renton Ave S
55474,Seattle,N,SEA,YES,106 107,0,NA,NA,51st Ave S & S Fletcher St
55589,Seattle,N,SEA,YES,106,1,NA,NA,Martin L King Jr Way S & S Thistle St
55590,Seattle,N,SEA,YES,106,1,NA,NA,Martin L King Jr Way S & S Kenyon St
85059,Seattle,S,SEA,YES,113,0,NA,NA,East Marginal Way S & S Idaho St
45460,Seattle,S,SEA,YES,107,0,NA,NA,Cornell Ave S & S 115th St
55578,Seattle,N,SEA,NO,599N,0,NA,NA,ST Light Rail & S Henderson St
45610,Seattle,W,SEA,YES,50,1,NA,NA,S Othello St & Rainier Ave S
82120,Shoreline,W,SEA,YES,65,1,NA,NA,NE 145th St & 30th Ave NE
99260,Seattle,N,SEA,NO,599N,0,NA,NA,ST Light Rail & S Royal Brougham Way
99264,Metro King County,N,SEA,YES,101 102 150 177,1,NA,NA,SODO Busway AcRd & S Holgate St
99266,Metro King County,S,SEA,YES,101 102 150 177,1,NA,NA,SODO Busway AcRd & S Holgate St
82126,Seattle,W,SEA,YES,79,0,NA,NA,NE 75th St & 31st Ave NE
82127,Seattle,W,SEA,YES,79,0,NA,NA,NE 75th St & 20th Ave NE
82128,Seattle,W,SEA,YES,79,0,NA,NA,NE 75th St & 25th Ave NE
82129,Seattle,W,SEA,YES,79,0,NA,NA,NE 75th St & 36th Ave NE
82145,Seattle,N,SEA,YES,67,0,NA,NA,Roosevelt Way NE & NE 80th St
82155,Seattle,N,SEA,YES,67,0,NA,NA,Roosevelt Way NE & NE 85th St
82160,Shoreline,W,SEA,YES,65,1,NA,NA,NE 145th St & 15th Ave NE
82165,Seattle,N,SEA,YES,67,0,NA,NA,Roosevelt Way NE & NE 90th St
82175,Seattle,N,SEA,YES,67,0,NA,NA,Roosevelt Way NE & NE 95th St
82185,Seattle,N,SEA,YES,67,0,NA,NA,Roosevelt Way NE & NE 100th St
82205,Seattle,S,SEA,YES,67,1,NA,NA,Roosevelt Way NE & NE 108th St
82207,Seattle,S,SEA,YES,67,0,NA,NA,Roosevelt Way NE & NE 105th St
82216,Seattle,S,SEA,YES,67,0,NA,NA,Roosevelt Way NE & NE 102nd St
99997,Seattle,W,SEA,YES,973,0,NA,NA,Water Taxi Route & Harbor Ave SW
82187,Seattle,N,SEA,YES,67,0,NA,NA,Roosevelt Way NE & NE 103rd St
82195,Seattle,N,SEA,YES,67,0,NA,NA,Roosevelt Way NE & NE 105th St
82197,Seattle,N,SEA,YES,67,0,NA,NA,Roosevelt Way NE & NE 108th St
82198,Seattle,W,SEA,YES,322 348 61 67,1,NA,NA,NE Northgate Way & Roosevelt Way NE
49739,Seattle,S,SEA,YES,132,0,NA,NA,14th Ave S & S Trenton St
49740,Seattle,S,SEA,YES,132,0,NA,NA,14th Ave S & S Henderson St
49753,Seattle,S,SEA,YES,132,0,NA,NA,5th Ave S & S Kenyon St
49754,Seattle,W,SEA,YES,132,0,NA,NA,S Kenyon St & 5th Ave S
49755,Seattle,E,SEA,YES,132,0,NA,NA,S Holden St & 5th Ave S
49757,Seattle,E,SEA,YES,132,0,NA,NA,S Holden St & 2nd Ave S
49758,Seattle,W,SEA,YES,132,0,NA,NA,S Holden St & 2nd Ave S
55771,Seattle,N,SEA,YES,106,1,NA,NA,Martin L King Jr Way S & S Edmunds St
55778,Seattle,N,SEA,NO,599N,0,NA,NA,ST Light Rail & S Alaska St
55790,Seattle,N,SEA,YES,106,1,NA,NA,Martin L King Jr Way S & S Oregon St
55802,Seattle,N,SEA,YES,106,1,NA,NA,Martin L King Jr Way S & S Dakota St
45940,Seattle,S,SEA,YES,131 132,0,NA,NA,4th Ave S & S Mead St
49775,Seattle,N,SEA,YES,132,0,NA,NA,5th Ave S & S Holden St
55812,Seattle,N,SEA,YES,106,1,NA,NA,Martin L King Jr Way S & S Andover St
55831,Seattle,N,SEA,YES,106,1,NA,NA,Martin L King Jr Way S & S Walden St
55851,Seattle,N,SEA,YES,106,1,NA,NA,Martin L King Jr Way S & S Hanford St
55860,Seattle,N,SEA,NO,599N,0,NA,NA,ST Light Rail & S Stevens St
46022,Seattle,S,SEA,YES,124 60,0,NA,NA,Ellis Ave S & S Warsaw St
46025,Seattle,S,SEA,YES,124 60,0,NA,NA,Ellis Ave S & S Myrtle St
46040,Seattle,S,SEA,YES,107,0,NA,NA,Swift Ave S & 18th Ave S
46061,Unknown,S,SEA,UNK,107,0,NA,NA,Swift Ave S & Swift Ave S
55593,Seattle,N,SEA,YES,106,0,NA,NA,Martin L King Jr Way S & S Webster St
45630,Seattle,W,SEA,YES,50,0,NA,NA,S Othello St & 46th Ave S
45670,Seattle,W,SEA,YES,36,0,NA,NA,S Myrtle Pl & S Holly Park Dr
45680,Seattle,W,SEA,YES,36,1,NA,NA,S Myrtle St & 32nd Ave S
45700,Seattle,N,SEA,YES,107,0,NA,NA,Swift Ave S & S Willow St
49710,Seattle,N,SEA,YES,132,0,NA,NA,14th Ave S & S Director St
49720,Seattle,N,SEA,YES,132,1,NA,NA,14th Ave S & S Trenton St
45810,Seattle,N,SEA,YES,131 132,0,NA,NA,4th Ave S & S Lucile St
45820,Seattle,N,SEA,YES,131 132,1,NA,NA,4th Ave S & S Bennett St
45840,Seattle,N,SEA,YES,131 132,0,NA,NA,4th Ave S & S Industrial Way
45850,Seattle,N,SEA,YES,131 132,0,NA,NA,4th Ave S & S Industrial Way
45880,Seattle,S,SEA,YES,131 132,0,NA,NA,4th Ave S & Diagonal Ave S
45900,Seattle,S,SEA,YES,131 132,0,NA,NA,4th Ave S & Diagonal Ave S
45910,Seattle,S,SEA,YES,131 132,0,NA,NA,4th Ave S & S Dawson St
45920,Seattle,S,SEA,YES,131 132,0,NA,NA,4th Ave S & S Brandon St
55656,Seattle,N,SEA,NO,599N,0,NA,NA,ST Light Rail & S Myrtle St
55661,Seattle,N,SEA,YES,106,1,NA,NA,Martin L King Jr Way S & S Myrtle St
55681,Seattle,N,SEA,YES,106,1,NA,NA,Martin L King Jr Way S & S Holly St
45731,Unknown,N,SEA,YES,107,0,NA,NA,Swift Ave S & S Warsaw St
45732,Seattle,N,SEA,YES,107,0,NA,NA,Swift Ave S & 18th Ave S
45740,Seattle,N,SEA,YES,124 60,0,NA,NA,East Marginal Way S & Ellis Ave S
45751,Seattle,N,SEA,YES,124 60,0,NA,NA,East Marginal Way S & Corson Ave S
45770,Seattle,N,SEA,YES,131 132,1,NA,NA,4th Ave S & S Michigan St
45790,Seattle,N,SEA,YES,131 132,1,NA,NA,4th Ave S & S Fidalgo St
45800,Seattle,N,SEA,YES,131 132,1,NA,NA,4th Ave S & S Orcas St
49725,Seattle,S,SEA,YES,132,0,NA,NA,8th Ave S & S Southern St
49726,Seattle,S,SEA,YES,132,0,NA,NA,8th Ave S & S Thistle St
49730,Seattle,N,SEA,YES,132,1,NA,NA,8th Ave S & S Sullivan St
49731,Seattle,N,SEA,YES,132,0,NA,NA,8th Ave S & S Thistle St
49732,Seattle,N,SEA,YES,132,0,NA,NA,8th Ave S & S Southern St
55702,Seattle,N,SEA,YES,106,1,NA,NA,Martin L King Jr Way S & S Graham St
55711,Seattle,N,SEA,YES,106,1,NA,NA,Martin L King Jr Way S & 37th Ave S
55729,Seattle,N,SEA,YES,106,2,NA,NA,Martin L King Jr Way S & S Orcas St
55735,Seattle,N,SEA,YES,106,1,NA,NA,Martin L King Jr Way S & S Dawson St
55140,Seattle,N,SEA,YES,106,0,NA,NA,Renton Ave S & S Hazel St
55150,Seattle,N,SEA,YES,106,0,NA,NA,Renton Ave S & 63rd Ave S
55160,Seattle,N,SEA,YES,106,0,NA,NA,Renton Ave S & S Prentice St
55170,Seattle,N,SEA,YES,106,0,NA,NA,Renton Ave S & S Ryan St
55180,Seattle,N,SEA,YES,106,0,NA,NA,Renton Ave S & S Victor St
55190,Seattle,N,SEA,YES,106,0,NA,NA,Renton Ave S & 57th Ave S
55200,Seattle,N,SEA,YES,106,0,NA,NA,Renton Ave S & S Norfolk St
55210,Seattle,N,SEA,YES,106,0,NA,NA,Renton Ave S & 54th Ave S
55220,Seattle,N,SEA,YES,106,0,NA,NA,Renton Ave S & 52nd Ave S
55226,Seattle,S,SEA,YES,106 107,0,NA,NA,51st Ave S & S Fletcher St
55228,Seattle,S,SEA,YES,107,0,NA,NA,51st Ave S & S Roxbury St
56021,Seattle,S,SEA,YES,106,1,NA,NA,Martin L King Jr Way S & S Columbian Way
56039,Seattle,S,SEA,NO,599,0,NA,NA,ST Light Rail & S Edmunds St
56041,Seattle,S,SEA,YES,106,0,NA,NA,Martin L King Jr Way S & S Edmunds St
56061,Seattle,S,SEA,YES,106,0,NA,NA,Martin L King Jr Way S & S Dawson St
51800,Seattle,N,SEA,YES,131,0,NA,NA,Highland Park Way SW & SW Othello St
51810,Seattle,N,SEA,YES,131,0,NA,NA,Highland Park Way SW & SW Othello St
51820,Seattle,E,SEA,YES,131,0,NA,NA,Highland Park Way SW & West Marginal Way S
51830,Seattle,E,SEA,YES,131,1,NA,NA,Highland Park Way SW & West Marginal Way S
51834,Seattle,E,SEA,YES,131,0,NA,NA,Highland Park Way SW & 2nd Ave SW
51870,Seattle,W,SEA,YES,131 132,0,NA,NA,S Michigan St & East Marginal Way S
55130,Seattle,N,SEA,YES,106,1,NA,NA,Renton Ave S & S Fountain Pl
56081,Seattle,S,SEA,YES,106,1,NA,NA,Martin L King Jr Way S & S Orcas St
56099,Seattle,S,SEA,YES,106,0,NA,NA,Martin L King Jr Way S & S Raymond St
56111,Seattle,S,SEA,YES,106,1,NA,NA,Martin L King Jr Way S & S Graham St
56130,Seattle,S,SEA,YES,106,0,NA,NA,Martin L King Jr Way S & S Holly St
51728,Seattle,N,SEA,YES,131,0,NA,NA,8th Ave SW & SW Barton St
51740,Seattle,N,SEA,YES,131,1,NA,NA,9th Ave SW & SW Trenton St
51877,Seattle,W,SEA,YES,131,0,NA,NA,Highland Park Way SW & 2nd Ave SW
51882,Unknown,W,SEA,UNK,131,0,NA,NA,Highland Park Way SW & West Marginal Way SW
51890,Seattle,S,SEA,YES,131,0,NA,NA,Highland Park Way SW & SW Othello St
51900,Seattle,S,SEA,YES,131,0,NA,NA,Highland Park Way SW & SW Othello St
51910,Seattle,S,SEA,YES,131,0,NA,NA,Highland Park Way SW & SW Portland St
51760,Seattle,N,SEA,YES,131,0,NA,NA,9th Ave SW & SW Thistle St
51770,Seattle,N,SEA,YES,131,1,NA,NA,9th Ave SW & SW Elmgrove St
51780,Seattle,N,SEA,YES,131,1,NA,NA,Highland Park Way SW & SW Kenyon St
51790,Seattle,N,SEA,YES,131,0,NA,NA,Highland Park Way SW & SW Holden St
51920,Seattle,S,SEA,YES,131,0,NA,NA,9th Ave SW & SW Kenyon St
51930,Seattle,S,SEA,YES,131,0,NA,NA,9th Ave SW & SW Elmgrove St
51940,Seattle,S,SEA,YES,131,0,NA,NA,9th Ave SW & SW Thistle St
55949,Seattle,S,SEA,NO,599,0,NA,NA,ST Light Rail & S Stevens St
46080,Seattle,S,SEA,YES,107,0,NA,NA,Swift Ave S & S Willow St
46101,Seattle,E,SEA,YES,36,1,NA,NA,S Myrtle Pl & 32nd Ave S
46110,Seattle,E,SEA,YES,36,0,NA,NA,S Myrtle Pl & S Holly Park Dr
46150,Seattle,E,SEA,YES,50,0,NA,NA,S Othello St & 46th Ave S
46165,Seattle,E,SEA,YES,50,0,NA,NA,S Othello St & Rainier Ave S
55980,Seattle,S,SEA,YES,106,0,NA,NA,Martin L King Jr Way S & S Walden St
55991,Seattle,S,SEA,YES,106,0,NA,NA,Martin L King Jr Way S & S Andover St
56000,Seattle,S,SEA,YES,106,0,NA,NA,Martin L King Jr Way S & S Dakota St
46221,Seattle,N,SEA,YES,107,0,NA,NA,Cornell Ave S & S 116th St
55960,Seattle,S,SEA,YES,106,1,NA,NA,Martin L King Jr Way S & S Winthrop St
1360,Seattle,W,SEA,YES,27,0,NA,NA,Yesler Way & 6th Ave
38024,Seattle,S,SEA,YES,45,1,NA,NA,University Way NE & NE 55th St
39458,Seattle,N,SEA,YES,57,0,NA,NA,Glenn Way SW & SW Genesee St
39459,Seattle,W,SEA,YES,57,0,NA,NA,SW Genesee St & 47th Ave SW
39460,Seattle,W,SEA,YES,57,0,NA,NA,SW Genesee St & 49th Ave SW
39461,Seattle,W,SEA,YES,57,0,NA,NA,SW Genesee St & 51st Ave SW
39462,Seattle,W,SEA,YES,57,0,NA,NA,SW Genesee St & 53rd Ave SW
39463,Seattle,W,SEA,YES,57,0,NA,NA,SW Genesee St & 55th Ave SW
39465,Seattle,N,SEA,YES,57,0,NA,NA,55th Ave SW & SW Andover St
39466,Seattle,N,SEA,YES,57,0,NA,NA,55th Ave SW & SW Charlestown St
39467,Seattle,E,SEA,YES,57,0,NA,NA,SW Charlestown St & 53rd Ave SW
28374,Seattle,W,SEA,YES,28E,0,NA,NA,N 39th St & Evanston Ave N
28376,Seattle,W,SEA,YES,28E,0,NA,NA,N 39th St & Phinney Ave N
28390,Seattle,W,SEA,YES,40,0,NA,NA,Leary Way NW & 3rd Ave NW
28410,Seattle,W,SEA,YES,28E 40,1,NA,NA,Leary Way NW & 6th Ave NW
28415,Seattle,N,SEA,YES,40,0,NA,NA,Leary Way NW & 8th Ave NW
29530,Seattle,W,SEA,YES,44 62,1,NA,NA,N 45th St & Woodlawn Ave N
2390,Seattle,N,SEA,YES,1,0,NA,NA,2nd Ave W & W Roy St
2400,Seattle,W,SEA,YES,1,0,NA,NA,W Olympic Pl & 3rd Ave W
2410,Seattle,W,SEA,YES,1,0,NA,NA,W Olympic Pl & 5th Ave W
2420,Seattle,W,SEA,YES,1,0,NA,NA,W Olympic Pl & 7th Ave W
2430,Seattle,N,SEA,YES,1,0,NA,NA,Olympic Way W & W Prospect St
2440,Seattle,N,SEA,YES,1,0,NA,NA,Olympic Way W & 10th Ave W
2450,Seattle,N,SEA,YES,1,0,NA,NA,10th Ave W & W Galer St
2460,Seattle,N,SEA,YES,1,0,NA,NA,10th Ave W & W Blaine St
2470,Seattle,N,SEA,YES,1,0,NA,NA,10th Ave W & W Howe St
2480,Seattle,N,SEA,YES,1,0,NA,NA,10th Ave W & W Crockett St
2490,Seattle,N,SEA,YES,1,0,NA,NA,10th Ave W & W McGraw St
4070,Seattle,S,SEA,YES,4,2,NA,NA,5th Ave N & Broad St
39468,Seattle,E,SEA,YES,57,0,NA,NA,SW Charlestown St & 51st Ave SW
39469,Seattle,N,SEA,YES,57,0,NA,NA,49th Ave SW & SW Charlestown St
40881,Seattle,N,SEA,YES,124,1,NA,NA,Airport Way S & S Vale St
40882,Seattle,N,SEA,YES,124,0,NA,NA,Airport Way S & S Doris St
40885,Seattle,N,SEA,YES,124,1,NA,NA,Airport Way S & Corson Ave S
40890,Seattle,N,SEA,YES,124,0,NA,NA,Airport Way S & S Edmunds St
40892,Seattle,N,SEA,YES,124,0,NA,NA,Airport Way S & S Alaska St
40894,Seattle,N,SEA,YES,124,0,NA,NA,Airport Way S & S Industrial Way
40896,Seattle,N,SEA,YES,124,0,NA,NA,Airport Way S & S Adams St
40898,Seattle,N,SEA,YES,124,0,NA,NA,Airport Way S & S Andover St
29557,Seattle,W,SEA,YES,44,1,NA,NA,N 46th St & Green Lake Way N
31111,Seattle,S,SEA,YES,107,0,NA,NA,39th Ave S & S Cambridge St
4080,Seattle,S,SEA,YES,4,0,NA,NA,5th Ave N & Denny Way
4200,Seattle,N,SEA,YES,4,1,NA,NA,Cedar St & Denny Way
4220,Seattle,N,SEA,YES,4,0,NA,NA,5th Ave N & Broad St
4230,Seattle,N,SEA,YES,4,1,NA,NA,5th Ave N & Republican St
4245,Seattle,E,SEA,YES,4,1,NA,NA,Valley St & Taylor Ave N
6520,Seattle,N,SEA,YES,5,0,NA,NA,Phinney Ave N & N 60th St
31130,Seattle,E,SEA,YES,107,0,NA,NA,Carkeek Dr S & 40th Ave S
31131,Seattle,N,SEA,YES,107,0,NA,NA,Carkeek Dr S & 41st Ave S
31134,Seattle,E,SEA,YES,106 107 9E,1,NA,NA,S Henderson St & 48th Ave S
6540,Seattle,N,SEA,YES,5,0,NA,NA,Phinney Ave N & N 64th St
6550,Seattle,N,SEA,YES,5,0,NA,NA,Phinney Ave N & N 67th St
6565,Seattle,N,SEA,YES,5,0,NA,NA,Greenwood Ave N & N 68th St
6580,Seattle,N,SEA,YES,5,0,NA,NA,Greenwood Ave N & N 72nd St
6590,Seattle,N,SEA,YES,5,0,NA,NA,Greenwood Ave N & N 75th St
6600,Seattle,N,SEA,YES,5,0,NA,NA,Greenwood Ave N & N 77th St
6615,Seattle,N,SEA,YES,5,0,NA,NA,Greenwood Ave N & N 80th St
8380,Seattle,N,SEA,YES,7,1,NA,NA,Rainier Ave S & S Walden St
34840,Seattle,W,SEA,YES,50,0,NA,NA,S Genesee St & 47th Ave S
34860,Seattle,W,SEA,YES,50,0,NA,NA,S Genesee St & 43rd Ave S
34880,Seattle,W,SEA,YES,50 987EN,0,NA,NA,S Genesee St & 39th Ave S
8400,Seattle,N,SEA,YES,7,1,NA,NA,Rainier Ave S & S Mount Baker Blvd
9820,Seattle,S,SEA,YES,75,1,NA,NA,Sand Point Way NE & NE 97th St
9830,Seattle,S,SEA,YES,75,0,NA,NA,Sand Point Way NE & NE 95th St
9840,Seattle,S,SEA,YES,75,0,NA,NA,Sand Point Way NE & NE 93rd St
36440,Seattle,E,SEA,YES,128,1,NA,NA,SW Morgan St & 35th Ave SW
36450,Seattle,E,SEA,YES,128,0,NA,NA,SW Morgan St & Lanham Pl SW
36470,Seattle,S,SEA,YES,128,0,NA,NA,Sylvan Way SW & SW Holly St
36472,Seattle,E,SEA,YES,128,0,NA,NA,Sylvan Way SW & SW Sylvan Heights Dr
36480,Seattle,E,SEA,YES,128,0,NA,NA,SW Orchard St & Delridge Way SW
36490,Seattle,N,SEA,YES,125 128,0,NA,NA,16th Ave SW & SW Webster St
36500,Seattle,N,SEA,YES,125 128,1,NA,NA,16th Ave SW & SW Orchard St
9850,Seattle,S,SEA,YES,75,0,NA,NA,Sand Point Way NE & Mathews Ave NE
9860,Seattle,S,SEA,YES,75,0,NA,NA,Sand Point Way NE & Inverness Dr NE
9895,Seattle,S,SEA,YES,62 75,1,NA,NA,Sand Point Way NE & NE 77th St
11100,Seattle,W,SEA,YES,10 11 12 3 49,0,NA,NA,E Pine St & Bellevue Ave
36510,Seattle,N,SEA,YES,125 128,0,NA,NA,16th Ave SW & SW Holly St
36520,Seattle,N,SEA,YES,125 128,1,NA,NA,16th Ave SW & SW Morgan St
36522,Seattle,S,SEA,YES,125 128,0,NA,NA,16th Ave SW & SW Graham St
38060,Seattle,S,SEA,YES,65,0,NA,NA,30th Ave NE & NE 140th St
38080,Seattle,S,SEA,YES,65,0,NA,NA,30th Ave NE & NE 135th St
11140,Seattle,E,SEA,YES,10 12 49,1,NA,NA,E Pine St & Belmont Ave
11175,Seattle,S,SEA,YES,96N,0,NA,NA,Broadway & E Denny Way
11180,Seattle,N,SEA,YES,49 60 9E,0,NA,NA,Broadway E & E John St
12500,Seattle,N,SEA,YES,4,0,NA,NA,26th Ave S & S Norman St
12520,Seattle,W,SEA,YES,4,0,NA,NA,S Dearborn St & 26th Ave S
12532,Seattle,N,SEA,YES,4 48,1,NA,NA,23rd Ave S & S Lane St
38090,Seattle,S,SEA,YES,65,0,NA,NA,30th Ave NE & NE 133rd St
38100,Seattle,S,SEA,YES,65,0,NA,NA,30th Ave NE & NE 130th St
38110,Seattle,S,SEA,YES,65,0,NA,NA,30th Ave NE & NE 127th St
39470,Seattle,N,SEA,YES,57,0,NA,NA,49th Ave SW & SW Spokane St
39471,Seattle,N,SEA,YES,57,0,NA,NA,49th Ave SW & SW Hinds St
39472,Seattle,N,SEA,YES,57,0,NA,NA,49th Ave SW & SW Hanford St
39473,Seattle,N,SEA,YES,57,0,NA,NA,49th Ave SW & SW Stevens St
39475,Seattle,S,SEA,YES,57,0,NA,NA,49th Ave SW & SW Stevens St
39476,Seattle,S,SEA,YES,57,0,NA,NA,49th Ave SW & SW Hanford St
39477,Seattle,S,SEA,YES,57,0,NA,NA,49th Ave SW & SW Hinds St
39479,Seattle,S,SEA,YES,57,0,NA,NA,49th Ave SW & SW Spokane St
39480,Seattle,W,SEA,YES,57,0,NA,NA,SW Charlestown St & 49th Ave SW
12560,Seattle,N,SEA,YES,4 48,1,NA,NA,23rd Ave & E Yesler Way
14170,Seattle,N,SEA,YES,32 D,1,NA,NA,15th Ave W & W Dravus St
14190,Seattle,N,SEA,YES,D,1,NA,NA,15th Ave W & W Emerson St
14195,Seattle,E,SEA,YES,31,0,NA,NA,W Emerson Pl & 21st Ave W
39490,Seattle,W,SEA,YES,57,0,NA,NA,SW Charlestown St & 51st Ave SW
39500,Seattle,W,SEA,YES,57,0,NA,NA,SW Charlestown St & 53rd Ave SW
40900,Seattle,N,SEA,YES,124,0,NA,NA,Airport Way S & S Charlestown St
40999,Seattle,N,SEA,YES,124,0,NA,NA,Airport Way S & S Spokane St
41000,Seattle,S,SEA,YES,124,0,NA,NA,Airport Way S & S Bradford St
41010,Seattle,S,SEA,YES,124,0,NA,NA,Airport Way S & S Dakota St
41020,Seattle,S,SEA,YES,124,0,NA,NA,Airport Way S & S Industrial Way
41030,Seattle,S,SEA,YES,124,0,NA,NA,Airport Way S & S Snoqualmie St
41040,Seattle,S,SEA,YES,124,0,NA,NA,Airport Way S & S Edmunds St
41060,Seattle,S,SEA,YES,124,0,NA,NA,Airport Way S & S Lucile St
14250,Seattle,N,SEA,YES,D,1,NA,NA,15th Ave NW & NW 60th St
16460,Seattle,S,SEA,YES,67,1,NA,NA,Roosevelt Way NE & NE Ravenna Blvd
16480,Seattle,S,SEA,YES,67,1,NA,NA,Roosevelt Way NE & NE 55th St
41080,Seattle,S,SEA,YES,124,0,NA,NA,Airport Way S & S Doris St
16515,Seattle,N,SEA,YES,45 62,0,NA,NA,NE Ravenna Blvd & NE 68th St
19620,Seattle,N,SEA,YES,40,0,NA,NA,24th Ave NW & NW 83rd St
19650,Seattle,W,SEA,YES,C,1,NA,NA,SW Wildwood Pl & 45th Ave SW
19700,Seattle,N,SEA,YES,C,1,NA,NA,Fauntleroy Way SW & SW Rose St
21600,Seattle,N,SEA,YES,125 50 H,1,NA,NA,Delridge Way SW & SW Genesee St
21680,Seattle,N,SEA,YES,124,0,NA,NA,Airport Way S & S Horton St
21690,Seattle,N,SEA,YES,124,0,NA,NA,Airport Way S & S Stevens St
21700,Seattle,N,SEA,YES,124,0,NA,NA,Airport Way S & S Lander St
21710,Seattle,N,SEA,YES,124,0,NA,NA,Airport Way S & S Bayview St
22950,Seattle,S,SEA,YES,21 21E,0,NA,NA,35th Ave SW & SW Holly St
22970,Seattle,S,SEA,YES,21 21E,0,NA,NA,35th Ave SW & SW Myrtle St
22990,Seattle,S,SEA,YES,21 21E,0,NA,NA,35th Ave SW & SW Webster St
23000,Seattle,S,SEA,YES,21 21E,0,NA,NA,35th Ave SW & SW Ida St
23010,Seattle,S,SEA,YES,21 21E,0,NA,NA,35th Ave SW & SW Kenyon St
23020,Seattle,S,SEA,YES,21 21E,0,NA,NA,35th Ave SW & SW Elmgrove St
23030,Seattle,S,SEA,YES,21 21E,0,NA,NA,35th Ave SW & SW Thistle St
23050,Seattle,S,SEA,YES,21 21E,0,NA,NA,35th Ave SW & SW Trenton St
24950,Seattle,S,SEA,YES,65,1,NA,NA,35th Ave NE & NE 110th St
24960,Seattle,S,SEA,YES,65,0,NA,NA,35th Ave NE & NE 105th St
24980,Seattle,S,SEA,YES,65,1,NA,NA,35th Ave NE & NE 100th St
24990,Seattle,S,SEA,YES,65,0,NA,NA,35th Ave NE & NE 97th St
25010,Seattle,S,SEA,YES,65,0,NA,NA,35th Ave NE & NE 92nd St
25020,Seattle,S,SEA,YES,65,0,NA,NA,35th Ave NE & NE 90th St
25040,Seattle,S,SEA,YES,65,1,NA,NA,35th Ave NE & NE 85th St
25050,Seattle,S,SEA,YES,65,1,NA,NA,35th Ave NE & NE 81st St
26641,Seattle,S,SEA,YES,40 98N C,0,NA,NA,Westlake Ave N & Mercer St
26665,Seattle,S,SEA,YES,40 98N C,0,NA,NA,Westlake Ave & 9th Ave
26680,Seattle,N,SEA,YES,98N,0,NA,NA,Westlake Ave & Olive Way
26689,Seattle,N,SEA,YES,98N,0,NA,NA,Westlake Ave & 7th Ave
28350,Seattle,W,SEA,YES,40,0,NA,NA,N 36th St & Dayton Ave N
28370,Seattle,W,SEA,YES,40,0,NA,NA,NW 36th St & 1st Ave NW
56300,Seattle,S,SEA,YES,106,0,NA,NA,Renton Ave S & 55th Ave S
56310,Seattle,S,SEA,YES,106,0,NA,NA,Renton Ave S & 57th Ave S
56320,Seattle,S,SEA,YES,106,0,NA,NA,Renton Ave S & Victor St
56330,Seattle,S,SEA,YES,106,0,NA,NA,Renton Ave S & S Ryan St
56340,Seattle,S,SEA,YES,106,0,NA,NA,Renton Ave S & S Prentice St
56350,Seattle,S,SEA,YES,106,0,NA,NA,Renton Ave S & S Bangor St
56360,Seattle,S,SEA,YES,106,0,NA,NA,Renton Ave S & S Hazel St
56370,Seattle,S,SEA,YES,106,0,NA,NA,Renton Ave S & S Fountain St
55230,Seattle,S,SEA,YES,107,0,NA,NA,51st Ave S & S Bond St
56159,Seattle,S,SEA,NO,599,0,NA,NA,ST Light Rail & S Othello St
56162,Seattle,S,SEA,YES,106,0,NA,NA,Martin L King Jr Way S & S Webster St
56164,Seattle,S,SEA,YES,106,0,NA,NA,Martin L King Jr Way S & S Kenyon St
56165,Seattle,S,SEA,YES,106,0,NA,NA,Martin L King Jr Way S & S Thistle St
56173,Seattle,S,SEA,NO,599,0,NA,NA,ST Light Rail & S Henderson St
34770,Seattle,W,SEA,YES,50,0,NA,NA,S Dawson St & 51st Ave S
34780,Seattle,N,SEA,YES,50,0,NA,NA,50th Ave S & S Hudson St
34800,Seattle,N,SEA,YES,50,0,NA,NA,50th Ave S & S Alaska St
34820,Seattle,W,SEA,YES,50,0,NA,NA,S Genesee St & 50th Ave S
36360,Seattle,W,SEA,YES,128,1,NA,NA,SW Morgan St & 35th Ave SW
36370,Seattle,W,SEA,YES,128,0,NA,NA,SW Morgan St & 38th Ave SW
36380,Seattle,W,SEA,YES,128,0,NA,NA,SW Morgan St & 40th Ave SW
51960,Seattle,S,SEA,YES,131,0,NA,NA,9th Ave SW & SW Trenton St
51970,Seattle,S,SEA,YES,131,0,NA,NA,9th Ave SW & SW Henderson St
51972,Seattle,S,SEA,YES,131,0,NA,NA,8th Ave SW & SW Cambridge St
55240,Seattle,S,SEA,YES,107,0,NA,NA,51st Ave S & S Gazelle St
55250,Seattle,S,SEA,YES,107,0,NA,NA,51st Ave S & S Ryan St
55290,Seattle,E,SEA,YES,107,0,NA,NA,S Leo St & Beacon Ave S
55300,Seattle,E,SEA,YES,107,0,NA,NA,S Leo St & 53rd Ave S
55310,Seattle,E,SEA,YES,107,0,NA,NA,S Leo St & 55th Ave S
55320,Seattle,E,SEA,YES,107,0,NA,NA,S Leo St & 56th Ave S
55330,Seattle,S,SEA,YES,107,1,NA,NA,56th Ave S & S Avon St
55340,Seattle,E,SEA,YES,107,0,NA,NA,S Avon St & 59th Ave S
36400,Seattle,E,SEA,YES,128,1,NA,NA,SW Morgan St & 42nd Ave SW
36410,Seattle,E,SEA,YES,128,0,NA,NA,SW Morgan St & 40th Ave SW
36420,Seattle,E,SEA,YES,128,0,NA,NA,SW Morgan St & 38th Ave SW
36430,Seattle,E,SEA,YES,128,0,NA,NA,SW Morgan St & 36th Ave SW
37970,Seattle,W,SEA,YES,62,0,NA,NA,NE 65th St & 28th Ave NE
37980,Seattle,W,SEA,YES,62,1,NA,NA,NE 65th St & 26th Ave NE
37990,Seattle,W,SEA,YES,62,0,NA,NA,NE 65th St & 25th Ave NE
38000,Seattle,W,SEA,YES,62,1,NA,NA,NE 65th St & Ravenna Ave NE
38020,Seattle,W,SEA,YES,62,0,NA,NA,NE 65th St & 18th Ave NE
38022,Seattle,S,SEA,YES,45,1,NA,NA,University Way NE & NE Ravenna Blvd
56275,Seattle,S,SEA,YES,106,0,NA,NA,Renton Ave S & S Roxbury St
34730,Seattle,N,SEA,YES,50,0,NA,NA,Seward Park Ave S & S Juneau St
34740,Seattle,N,SEA,YES,50,0,NA,NA,Seward Park Ave S & S Orcas St
34750,Seattle,N,SEA,YES,50,0,NA,NA,Seward Park Ave S & 56th Ave S
34760,Seattle,W,SEA,YES,50,0,NA,NA,S Dawson St & 54th Ave S
55380,Seattle,N,SEA,YES,107,1,NA,NA,Beacon Ave S & 59th Ave S
55395,Seattle,N,SEA,YES,107,0,NA,NA,Beacon Ave S & 56th Ave S
56280,Seattle,S,SEA,YES,106,0,NA,NA,Renton Ave S & 52nd Ave S
56290,Seattle,S,SEA,YES,106,0,NA,NA,Renton Ave S & 54th Ave S
11300,Seattle,W,SEA,YES,49,0,NA,NA,E Roanoke St & Broadway E
11330,Seattle,N,SEA,YES,49,0,NA,NA,Harvard Ave E & E Shelby St
11356,Seattle,W,SEA,YES,31 32,0,NA,NA,NE 45th St & 17th Ave NE
12712,Seattle,S,SEA,YES,3,0,NA,NA,34th Ave & E Cherry St
1550,Seattle,W,SEA,YES,3 4,0,NA,NA,James St & 4th Ave
1551,Seattle,W,SEA,YES,96,0,NA,NA,S Jackson St & Occidental Ave Walk
39870,Seattle,S,SEA,YES,22,0,NA,NA,41st Ave SW & SW Monroe St
39880,Seattle,S,SEA,YES,22,0,NA,NA,41st Ave SW & SW Southern St
39900,Seattle,E,SEA,YES,22,0,NA,NA,SW Thistle St & 39th Ave SW
39910,Seattle,E,SEA,YES,22,0,NA,NA,SW Thistle St & 37th Ave SW
39920,Seattle,E,SEA,YES,22,0,NA,NA,SW Thistle St & 35th Ave SW
12720,Seattle,W,SEA,YES,3,1,NA,NA,E Cherry St & 32nd Ave
12740,Seattle,W,SEA,YES,3,0,NA,NA,E Cherry St & Martin L King Jr Way
12760,Seattle,W,SEA,YES,3,1,NA,NA,E Cherry St & 25th Ave
12790,Seattle,W,SEA,YES,3 4,0,NA,NA,E Jefferson St & 21st Ave
14961,Seattle,S,SEA,YES,50 56,0,NA,NA,61st Ave SW & SW Stevens St
14962,Seattle,S,SEA,YES,50 56,0,NA,NA,61st Ave SW & SW Admiral Way
14963,Seattle,E,SEA,YES,50 56,0,NA,NA,SW Admiral Way & 60th Ave SW
14970,Seattle,E,SEA,YES,50 56,1,NA,NA,SW Admiral Way & 59th Ave SW
14980,Seattle,E,SEA,YES,50 56,0,NA,NA,SW Admiral Way & 57th Ave SW
18230,Seattle,E,SEA,YES,31 32,1,NA,NA,W Nickerson St & Queen Anne Ave N
18240,Seattle,E,SEA,YES,31 32,0,NA,NA,Nickerson St & Warren Ave N
18250,Seattle,E,SEA,YES,31 32,0,NA,NA,Nickerson St & Florentia St
18260,Seattle,S,SEA,YES,62,1,NA,NA,Dexter Ave N & 4th Ave N
18270,Seattle,S,SEA,YES,62,1,NA,NA,Dexter Ave N & Halladay St
18295,Seattle,S,SEA,YES,62,1,NA,NA,Dexter Ave N & 6th Ave N
19830,Seattle,N,SEA,YES,128 22 773 C,1,NA,NA,California Ave SW & SW Findlay St
19850,Seattle,N,SEA,YES,128 22 773,0,NA,NA,California Ave SW & SW Dawson St
19861,Seattle,W,SEA,YES,22 773,0,NA,NA,SW Edmunds St & 44th Ave SW
19875,Seattle,E,SEA,YES,50 773,1,NA,NA,SW Alaska St & 42nd Ave SW
23200,Seattle,S,SEA,YES,75,1,NA,NA,5th Ave NE & NE 115th St
23220,Seattle,S,SEA,YES,75,1,NA,NA,5th Ave NE & NE 112th St
23230,Seattle,S,SEA,YES,322 348 61 67 75,1,NA,NA,5th Ave NE & NE Northgate Way
23250,Seattle,S,SEA,YES,322 348 61 67 75,0,NA,NA,5th Ave NE & NE 106th St
23260,Seattle,S,SEA,YES,322 67 75,0,NA,NA,5th Ave NE & NE 103rd St
25200,Seattle,W,SEA,YES,31 32 45 67,1,NA,NA,NE 45th St & Union Bay Pl NE
25201,Seattle,E,SEA,YES,31 32 65 75,0,NA,NA,NE 45th St & University Village AcRd
25202,Seattle,W,SEA,YES,31 32 45 67,0,NA,NA,NE 45th St & University Village AcRd
25210,Seattle,W,SEA,YES,45 67,1,NA,NA,Montlake Blvd NE & NE 45th St
26760,Seattle,N,SEA,YES,40,0,NA,NA,Westlake Ave N & Highland Dr
26770,Seattle,N,SEA,YES,40,0,NA,NA,Westlake Ave N & Galer St
26780,Seattle,N,SEA,YES,40,0,NA,NA,Westlake Ave N & 8th Ave N
26800,Seattle,N,SEA,YES,40,0,NA,NA,Westlake Ave N & Crockett St
28530,Seattle,N,SEA,YES,28E,0,NA,NA,8th Ave NW & NW 70th St
28540,Seattle,N,SEA,YES,28E,0,NA,NA,8th Ave NW & NW 73rd St
28550,Seattle,N,SEA,YES,28E,0,NA,NA,8th Ave NW & NW 75th St
28575,Seattle,N,SEA,YES,28E,0,NA,NA,8th Ave NW & NW 80th St
531,Seattle,N,SEA,YES,124N 131N 132N 17E 21N 24 27N 28E 33 40 5 62,3,NA,NA,3rd Ave & James St
532,Metro King County,N,SEA,YES,599N,0,NA,NA,Pioneer Sq Sta AcRd & Transit Tunnel AcRd
538,Seattle,N,SEA,YES,1 13 14N 2N 3 36N 4 70 7N D E,3,NA,NA,3rd Ave & Columbia St
539,Unknown,N,SEA,UNK,125 C,0,NA,NA,3rd Ave & Marion St
1490,Seattle,E,SEA,YES,106 14 36 7,0,NA,NA,S Jackson St & 8th Ave S
29700,Seattle,W,SEA,YES,44,0,NA,NA,NW Market St & 15th Ave NW
29720,Seattle,W,SEA,YES,44,0,NA,NA,NW Market St & 20th Ave NW
29889,Seattle,E,SEA,YES,31 32,0,NA,NA,NE 45th St & Memorial Way
29891,Seattle,E,SEA,YES,31 32,0,NA,NA,NE 45th St & 19th Ave NE
1500,Seattle,W,SEA,YES,1 106 14N 36 7,0,NA,NA,S Jackson St & 8th Ave S
1510,Seattle,W,SEA,YES,1 106N 14N 36 7,0,NA,NA,S Jackson St & Maynard Ave S
2620,Seattle,E,SEA,YES,2,1,NA,NA,W Galer St & 5th Aly W
2630,Seattle,E,SEA,YES,2,1,NA,NA,W Galer St & 2nd Ave W
2660,Seattle,S,SEA,YES,13 2,1,NA,NA,Queen Anne Ave N & W Highland Dr
2670,Seattle,S,SEA,YES,13 2,0,NA,NA,Queen Anne Ave N & W Prospect St
29920,Seattle,E,SEA,YES,31 32 65 75,0,NA,NA,NE 45th St & Mary Gates Memorial Dr NE
31220,Seattle,S,SEA,YES,33,0,NA,NA,Gilman Ave W & 24th Ave W
31240,Seattle,S,SEA,YES,31 33,0,NA,NA,22nd Ave W & W Ruffner St
31250,Seattle,S,SEA,YES,31 33,0,NA,NA,22nd Ave W & W Bertona St
31260,Seattle,S,SEA,YES,31 33,0,NA,NA,22nd Ave W & W Dravus St
31270,Seattle,S,SEA,YES,31 33,0,NA,NA,22nd Ave W & W Barrett St
31280,Seattle,S,SEA,YES,31 33,0,NA,NA,22nd Ave W & W Armour St
31290,Seattle,S,SEA,YES,31 33,1,NA,NA,22nd Ave W & Thorndyke Ave W
31300,Seattle,S,SEA,YES,31 33,0,NA,NA,Thorndyke Ave W & Thorndyke Ave W
31310,Seattle,S,SEA,YES,31 33,1,NA,NA,Thorndyke Ave W & Thorndyke Pl W
31320,Seattle,S,SEA,YES,31 33,0,NA,NA,Thorndyke Ave W & W Boston St
31330,Seattle,S,SEA,YES,31 33,0,NA,NA,Thorndyke Ave W & W Newton St
2680,Seattle,S,SEA,YES,13 2,1,NA,NA,Queen Anne Ave N & Valley St
32420,Seattle,N,SEA,YES,775,0,NA,NA,Alki Ave SW & 59th Ave SW
32421,Seattle,N,SEA,YES,775,0,NA,NA,Alki Ave SW & 57th Ave SW
35060,Seattle,E,SEA,YES,50,0,NA,NA,S Orcas St & 55th Ave S
35070,Seattle,S,SEA,YES,50,0,NA,NA,Seward Park Ave S & S Orcas St
6730,Seattle,N,SEA,YES,5,0,NA,NA,Greenwood Ave N & N 107th St
6740,Seattle,N,SEA,YES,5,0,NA,NA,Greenwood Ave N & N 110th St
6750,Seattle,N,SEA,YES,5,0,NA,NA,Greenwood Ave N & N 112th St
6770,Seattle,N,SEA,YES,5,0,NA,NA,Greenwood Ave N & N 117th St
35080,Seattle,S,SEA,YES,50,0,NA,NA,Seward Park Ave S & S Juneau St
35100,Seattle,S,SEA,YES,50,0,NA,NA,Seward Park Ave S & 57th Ave S
35120,Seattle,S,SEA,YES,50,0,NA,NA,Seward Park Ave S & 55th Ave S
35140,Seattle,S,SEA,YES,50,0,NA,NA,Seward Park Ave S & S Myrtle St
35149,Seattle,S,SEA,YES,50 987EN,0,NA,NA,Seward Park Ave S & S Othello St
36690,Seattle,E,SEA,YES,50,0,NA,NA,S Columbian Way & S Americus St
6790,Seattle,N,SEA,YES,5,0,NA,NA,Greenwood Ave N & N 122nd St
6800,Seattle,N,SEA,YES,5,0,NA,NA,Greenwood Ave N & N 125th St
8510,Seattle,N,SEA,YES,106 630 7 9E,0,NA,NA,Rainier Ave S & S Dearborn St
8530,Seattle,W,SEA,YES,106 14 7,1,NA,NA,S Jackson St & Boren Ave S
8550,Seattle,S,SEA,YES,106 7 9E,1,NA,NA,Rainier Ave S & S King St
36700,Seattle,E,SEA,YES,50,0,NA,NA,S Alaska St & S Alaska Pl
36711,Seattle,E,SEA,YES,50,1,NA,NA,S Alaska St & 31st Ave S
36720,Seattle,E,SEA,YES,50,1,NA,NA,S Alaska St & 35th Ave S
36730,Seattle,N,SEA,YES,48,0,NA,NA,23rd Ave S & S Plum St
36750,Seattle,N,SEA,YES,48,1,NA,NA,23rd Ave S & S Massachusetts St
36752,Seattle,N,SEA,YES,8,1,NA,NA,Martin L King Jr Way S & S Walker St
38240,Seattle,S,SEA,YES,372E,1,NA,NA,Ravenna Ave NE & NE 92nd St
9976,Seattle,S,SEA,YES,75,0,NA,NA,Sand Point Way NE & NE 50th St
9980,Seattle,W,SEA,YES,79,0,NA,NA,NE 55th St & Princeton Ave NE
9990,Seattle,W,SEA,YES,79,0,NA,NA,NE 55th St & 45th Ave NE
10005,Seattle,S,SEA,YES,65,0,NA,NA,40th Ave NE & NE 51st St
10010,Seattle,W,SEA,YES,65 79,0,NA,NA,NE 55th St & 39th Ave NE
10020,Seattle,W,SEA,YES,65 79,0,NA,NA,NE 55th St & 37th Ave NE
565,Metro King County,N,SEA,YES,599N,0,NA,NA,Symphony Station & Transit Tunnel AcRd
38260,Seattle,S,SEA,YES,372E,0,NA,NA,Ravenna Ave NE & NE 86th St
39810,Seattle,S,SEA,YES,22,0,NA,NA,California Ave SW & SW Myrtle St
39820,Seattle,S,SEA,YES,22,0,NA,NA,California Ave SW & SW Othello St
39830,Seattle,S,SEA,YES,22,0,NA,NA,California Ave SW & SW Webster St
39840,Seattle,E,SEA,YES,22,0,NA,NA,SW Ida St & California Ave SW
39850,Seattle,E,SEA,YES,22,0,NA,NA,SW Ida St & 41st Ave SW
39860,Seattle,S,SEA,YES,22,0,NA,NA,41st Ave SW & SW Portland St
19810,Seattle,N,SEA,YES,128 22 773,0,NA,NA,California Ave SW & SW Raymond St
21720,Seattle,N,SEA,YES,124,0,NA,NA,Airport Way S & S College St
21730,Seattle,N,SEA,YES,124,0,NA,NA,Airport Way S & S Hill St
23060,Seattle,S,SEA,YES,21 21E,0,NA,NA,35th Ave SW & SW Henderson St
23070,Seattle,S,SEA,YES,21E,1,NA,NA,35th Ave SW & SW Barton St
23080,Seattle,S,SEA,YES,21E,0,NA,NA,35th Ave SW & SW Cambridge St
23180,Seattle,S,SEA,YES,75,0,NA,NA,5th Ave NE & NE 120th St
25070,Seattle,S,SEA,YES,65,0,NA,NA,35th Ave NE & NE 75th St
25090,Seattle,S,SEA,YES,65,1,NA,NA,35th Ave NE & NE 70th St
25100,Seattle,S,SEA,YES,65,1,NA,NA,35th Ave NE & NE 68th St
25130,Seattle,S,SEA,YES,65,1,NA,NA,35th Ave NE & NE 60th St
25140,Seattle,S,SEA,YES,65,0,NA,NA,35th Ave NE & NE 55th St
26690,Seattle,N,SEA,YES,40 98N C,0,NA,NA,Westlake Ave & 9th Ave
26693,Seattle,N,SEA,YES,98,0,NA,NA,Terry Ave N & Thomas St
26698,Seattle,N,SEA,YES,98,0,NA,NA,Terry Ave N & Republican St
26700,Seattle,S,SEA,YES,98,0,NA,NA,Fairview Ave N & Ward St
26701,Seattle,E,SEA,YES,98,0,NA,NA,SLU Streetcar Rail & Terry Ave N
26702,Seattle,W,SEA,YES,98,0,NA,NA,SLU Streetcar Rail & Terry Ave N
455,Metro King County,S,SEA,YES,599,0,NA,NA,Symphony Station & Transit Tunnel AcRd
468,Seattle,S,SEA,YES,124 125 131 132 21 21E 24N 27 33N 56 57 C DN EN H,0,NA,NA,3rd Ave & Seneca St
26705,Seattle,N,SEA,YES,98,0,NA,NA,Fairview Ave N & Aloha St
28416,Seattle,W,SEA,YES,40,1,NA,NA,NW Leary Way & 11th Ave NW
28425,Seattle,N,SEA,YES,28E,0,NA,NA,8th Ave NW & NW 45th St
28450,Seattle,N,SEA,YES,28E,0,NA,NA,8th Ave NW & NW 50th St
28490,Seattle,N,SEA,YES,28E,0,NA,NA,8th Ave NW & NW 60th St
480,Seattle,S,SEA,YES,13N 14 17EN 1N 2N 3 36 4 40N 49N 62N 7 70N,0,NA,NA,3rd Ave & Marion St
490,Seattle,S,SEA,YES,124 131 132 21 24N 27 33N DN EN,3,NA,NA,3rd Ave & Cherry St
500,Seattle,S,SEA,YES,13N 14 17EN 1N 2N 36 3N 40N 49N 4N 62N 7 70N,1,NA,NA,3rd Ave & James St
501,Metro King County,S,SEA,YES,599N,0,NA,NA,Pioneer Sq Sta AcRd & Transit Tunnel AcRd
28510,Seattle,N,SEA,YES,28E,1,NA,NA,8th Ave NW & NW 65th St
29581,Unknown,W,SEA,UNK,44,1,NA,NA,N 46th St & Fremont Ave N
29582,Unknown,E,SEA,UNK,44,1,NA,NA,N 46th St & Aurora Ave N
29620,Seattle,W,SEA,YES,44,0,NA,NA,NW Market St & NW 48th St
29630,Seattle,W,SEA,YES,44,0,NA,NA,NW Market St & NW 50th St
29640,Seattle,W,SEA,YES,44,0,NA,NA,NW Market St & 3rd Ave NW
29650,Seattle,W,SEA,YES,44,0,NA,NA,NW Market St & 5th Ave NW
29660,Seattle,W,SEA,YES,44,1,NA,NA,NW Market St & 8th Ave NW
29680,Seattle,W,SEA,YES,44,0,NA,NA,NW Market St & 11th Ave NW
2500,Seattle,N,SEA,YES,1,0,NA,NA,10th Ave W & W Halladay St
2510,Seattle,N,SEA,YES,1,0,NA,NA,10th Ave W & W Newell St
2520,Seattle,N,SEA,YES,1,0,NA,NA,9th Ave W & W Armour St
2570,Seattle,E,SEA,YES,2,1,NA,NA,W McGraw St & 6th Ave W
2590,Seattle,S,SEA,YES,2,1,NA,NA,6th Ave W & W Howe St
31136,Seattle,E,SEA,YES,7,1,NA,NA,S Henderson St & 53rd Ave S
31150,Seattle,E,SEA,YES,33,1,NA,NA,W Government Way & 36th Ave W
31160,Seattle,E,SEA,YES,33,0,NA,NA,W Government Way & 31st Ave W
31180,Seattle,E,SEA,YES,33,0,NA,NA,Gilman Ave W & 28th Pl W
31190,Seattle,S,SEA,YES,33,1,NA,NA,Gilman Ave W & W Jameson St
31210,Seattle,S,SEA,YES,33,0,NA,NA,Gilman Ave W & 25th Ave W
2600,Seattle,S,SEA,YES,2,0,NA,NA,6th Ave W & W Blaine St
2610,Seattle,S,SEA,YES,2,1,NA,NA,6th Ave W & W Galer St
4265,Seattle,N,SEA,YES,4,0,NA,NA,Taylor Ave N & Prospect St
4280,Seattle,N,SEA,YES,4,0,NA,NA,Taylor Ave N & Lee St
4290,Seattle,N,SEA,YES,4,0,NA,NA,Taylor Ave N & Galer St
4300,Seattle,N,SEA,YES,4,0,NA,NA,Taylor Ave N & 5th Ave N
4325,Seattle,N,SEA,YES,4,0,NA,NA,5th Ave N & Newton St
34940,Seattle,E,SEA,YES,50,0,NA,NA,S Genesee St & 43rd Ave S
4340,Seattle,W,SEA,YES,4,0,NA,NA,Boston St & 4th Ave N
4355,Seattle,W,SEA,YES,4,0,NA,NA,Boston St & 2nd Ave N
6650,Seattle,N,SEA,YES,5 61,0,NA,NA,Greenwood Ave N & N 87th St
6660,Seattle,N,SEA,YES,5,0,NA,NA,Greenwood Ave N & N 90th St
6670,Seattle,N,SEA,YES,5,1,NA,NA,Greenwood Ave N & N 92nd St
6685,Seattle,N,SEA,YES,5,1,NA,NA,Greenwood Ave N & N 97th St
34960,Seattle,E,SEA,YES,50,0,NA,NA,S Genesee St & 46th Ave S
34980,Seattle,S,SEA,YES,50,0,NA,NA,50th Ave S & S Genesee St
35000,Seattle,S,SEA,YES,50,0,NA,NA,50th Ave S & S Alaska St
35020,Seattle,S,SEA,YES,50,0,NA,NA,Wilson Ave S & S Hudson St
35030,Seattle,S,SEA,YES,50,0,NA,NA,Wilson Ave S & S Dawson St
35050,Seattle,S,SEA,YES,50,0,NA,NA,Wilson Ave S & S Findlay St
36530,Seattle,N,SEA,YES,125,0,NA,NA,16th Ave SW & SW Findlay St
36540,Seattle,N,SEA,YES,125,0,NA,NA,16th Ave SW & SW Brandon St
36560,Seattle,W,SEA,YES,125,1,NA,NA,SW Dawson St & 18th Ave SW
6693,Seattle,N,SEA,YES,5,0,NA,NA,Greenwood Ave N & N 100th St
8429,Seattle,N,SEA,YES,106 48 634N 7,1,NA,NA,Rainier Ave S & S Bayview St
8450,Seattle,N,SEA,YES,106 634N 7,1,NA,NA,Rainier Ave S & S Plum St
8460,Seattle,N,SEA,YES,106 634N 7,0,NA,NA,Rainier Ave S & S Grand St
8485,Seattle,N,SEA,YES,106 7 9E,1,NA,NA,Rainier Ave S & I-90 Ramp
36580,Seattle,N,SEA,YES,125,0,NA,NA,21st Ave SW & SW Dawson St
38145,Seattle,S,SEA,YES,322 372E 61,1,NA,NA,Lake City Way NE & NE 120th St
38160,Seattle,S,SEA,YES,322 372E 61,1,NA,NA,Lake City Way NE & NE 115th St
9901,Unknown,S,SEA,UNK,62,0,NA,NA,62nd Ave NE & NE 65th St
9912,Seattle,S,SEA,YES,62 75,1,NA,NA,Sand Point Way NE & NE 70th St
9921,Seattle,S,SEA,YES,75 79,2,NA,NA,Sand Point Way NE & NE 65th St
9930,Seattle,S,SEA,YES,75 79,1,NA,NA,Sand Point Way NE & NE 62nd St
9950,Seattle,S,SEA,YES,75 79,1,NA,NA,Sand Point Way NE & NE 58th St
9970,Seattle,S,SEA,YES,75 79,0,NA,NA,Sand Point Way NE & Ivanhoe Pl NE
9972,Seattle,W,SEA,YES,75,1,NA,NA,Sand Point Way NE & Princeton Ave NE
9974,Seattle,S,SEA,YES,75,1,NA,NA,Sand Point Way NE & NE 52nd St
38180,Seattle,S,SEA,YES,372E,1,NA,NA,Lake City Way NE & NE 110th St
38200,Seattle,S,SEA,YES,372E,1,NA,NA,Lake City Way NE & 24th Ave NE
38220,Seattle,S,SEA,YES,372E,1,NA,NA,Lake City Way NE & NE 98th St
39510,Seattle,S,SEA,YES,57,0,NA,NA,55th Ave SW & SW Charlestown St
39520,Seattle,S,SEA,YES,57,0,NA,NA,55th Ave SW & SW Andover St
39540,Seattle,S,SEA,YES,57,0,NA,NA,55th Ave SW & SW Genesee St
39550,Seattle,E,SEA,YES,57,0,NA,NA,SW Genesee St & 53rd Ave SW
39560,Seattle,E,SEA,YES,57,0,NA,NA,SW Genesee St & 51st Ave SW
11230,Seattle,N,SEA,YES,49,0,NA,NA,10th Ave E & E Prospect St
11250,Seattle,N,SEA,YES,49,0,NA,NA,10th Ave E & E Galer St
11270,Seattle,N,SEA,YES,49,0,NA,NA,10th Ave E & E Howe St
11290,Seattle,N,SEA,YES,49,0,NA,NA,10th Ave E & E Miller St
39750,Seattle,E,SEA,YES,57,0,NA,NA,SW Genesee St & 49th Ave SW
39760,Seattle,E,SEA,YES,57,0,NA,NA,SW Genesee St & 47th Ave SW
39770,Seattle,S,SEA,YES,57,0,NA,NA,Glenn Way SW & 46th Ave SW
39800,Seattle,S,SEA,YES,22,0,NA,NA,California Ave SW & SW Willow St
12630,Seattle,S,SEA,YES,4 48 8,1,NA,NA,23rd Ave S & E Yesler Way
12660,Seattle,E,SEA,YES,4,0,NA,NA,S Dearborn St & 24th Ave S
12670,Seattle,S,SEA,YES,4,0,NA,NA,24th Ave S & S Norman St
12700,Seattle,S,SEA,YES,3,0,NA,NA,34th Ave & E Marion St
14280,Seattle,N,SEA,YES,D,1,NA,NA,15th Ave NW & 15th Ave NW
14300,Seattle,N,SEA,YES,D,0,NA,NA,15th Ave NW & NW 70th St
14320,Seattle,N,SEA,YES,D,0,NA,NA,15th Ave NW & NW 75th St
14340,Seattle,N,SEA,YES,D,0,NA,NA,15th Ave NW & NW 80th St
18145,Seattle,S,SEA,YES,40,0,NA,NA,Leary Ave NW & NW Vernon Pl
18150,Seattle,S,SEA,YES,40,1,NA,NA,Leary Ave NW & NW Ione Pl
18165,Seattle,E,SEA,YES,40,0,NA,NA,NW Leary Way & 15th Ave NW
18170,Seattle,N,SEA,YES,31,1,NA,NA,W Nickerson St & W Emerson St
18180,Seattle,E,SEA,YES,31 32,0,NA,NA,W Nickerson St & 12th Ave W
18190,Seattle,E,SEA,YES,31 32,1,NA,NA,W Nickerson St & Jesse Ave W
18200,Seattle,E,SEA,YES,31 32,0,NA,NA,W Nickerson St & 8th Ave W
18210,Seattle,E,SEA,YES,31 32,1,NA,NA,W Nickerson St & 6th Ave W
19740,Seattle,N,SEA,YES,C,1,NA,NA,Fauntleroy Way SW & SW Webster St
19750,Seattle,N,SEA,YES,C,1,NA,NA,Fauntleroy Way SW & SW Myrtle St
40049,Seattle,W,SEA,YES,40 D,1,NA,NA,Holman Rd NW & Mary Ave NW
40050,Seattle,E,SEA,YES,40 D,1,NA,NA,Holman Rd NW & Mary Ave NW
26940,Seattle,N,SEA,YES,31 32,0,NA,NA,Wallingford Ave N & N 37th St
13070,Seattle,E,SEA,YES,3,0,NA,NA,E Cherry St & 33rd Ave
13080,Seattle,N,SEA,YES,3,0,NA,NA,34th Ave & E Columbia St
13090,Seattle,W,SEA,YES,3,0,NA,NA,E Spring St & 34th Ave
15202,Unknown,S,SEA,UNK,21,0,NA,NA,1st Ave S & S Holgate St
15203,Unknown,S,SEA,UNK,21,0,NA,NA,1st Ave S & S Stacy St
15204,Unknown,E,SEA,UNK,21,0,NA,NA,Edgar Martinez Dr S & Occidental Ave S
15205,Seattle,N,SEA,YES,21 50,1,NA,NA,1st Ave S & S Hanford St
15206,Unknown,N,SEA,UNK,21,0,NA,NA,1st Ave S & S Stacy St
15207,Unknown,N,SEA,UNK,21,0,NA,NA,1st Ave S & S Holgate St
26980,Seattle,E,SEA,YES,31 32,1,NA,NA,N 40th St & Bagley Ave N
26999,Unknown,E,SEA,UNK,31 32,1,NA,NA,N 40th St & Eastern Ave N
15211,Unknown,S,SEA,UNK,21,0,NA,NA,1st Ave S & S Walker St
15212,Unknown,N,SEA,UNK,21,0,NA,NA,1st Ave S & S Walker St
16960,Seattle,S,SEA,YES,345 365 40,1,NA,NA,Meridian Ave N & N Northgate Way
16980,Seattle,S,SEA,YES,345 365 40,1,NA,NA,Meridian Ave N & N 105th St
16990,Seattle,S,SEA,YES,345 365 40,1,NA,NA,College Way N & N 103rd St
30171,Seattle,S,SEA,YES,107,0,NA,NA,Carkeek Dr S & 41st Ave S
30180,Seattle,W,SEA,YES,107,0,NA,NA,Carkeek Dr S & 40th Ave S
30190,Seattle,N,SEA,YES,107,0,NA,NA,39th Ave S & S Cambridge St
18480,Seattle,N,SEA,YES,62,1,NA,NA,Dexter Ave N & Aloha St
18505,Seattle,N,SEA,YES,62,0,NA,NA,Dexter Ave N & E Galer St
18530,Seattle,N,SEA,YES,62,0,NA,NA,Dexter Ave N & Newton St
18540,Seattle,N,SEA,YES,62,0,NA,NA,Dexter Ave N & Dexter Way N
18550,Seattle,N,SEA,YES,62,0,NA,NA,Dexter Ave N & Wheeler St
30211,Seattle,N,SEA,YES,107,0,NA,NA,Beacon Ave S & 39th Ave S
30220,Seattle,N,SEA,YES,107,0,NA,NA,Beacon Ave S & 38th Ave S
31430,Seattle,N,SEA,YES,31 33,0,NA,NA,22nd Ave W & W Dravus St
31440,Seattle,N,SEA,YES,31 33,0,NA,NA,22nd Ave W & W Bertona St
31450,Seattle,N,SEA,YES,31 33,0,NA,NA,22nd Ave W & W Ruffner St
31481,Unknown,N,SEA,UNK,33,0,NA,NA,Gilman Ave W & W Elmore St
31500,Seattle,N,SEA,YES,33,0,NA,NA,Gilman Ave W & 27th Ave W
20090,Seattle,S,SEA,YES,128 22 773 C,1,NA,NA,California Ave SW & SW Findlay St
20110,Seattle,S,SEA,YES,128 22 773,0,NA,NA,California Ave SW & SW Raymond St
20130,Seattle,W,SEA,YES,C,1,NA,NA,Fauntleroy Way SW & California Ave SW
20170,Seattle,S,SEA,YES,C,0,NA,NA,Fauntleroy Way SW & SW Myrtle St
20190,Seattle,S,SEA,YES,C,0,NA,NA,Fauntleroy Way SW & SW Webster St
31510,Seattle,N,SEA,YES,33,0,NA,NA,Gilman Ave W & 28th Ave W
31530,Seattle,W,SEA,YES,33,0,NA,NA,W Government Way & 31st Ave W
32435,Seattle,S,SEA,YES,773,0,NA,NA,Harbor Ave SW & California Way SW
32436,Seattle,S,SEA,YES,773,0,NA,NA,Harbor Ave SW & Fairmount Ave SW
32438,Seattle,S,SEA,YES,773,0,NA,NA,Harbor Ave SW & Jack Block Park AcRd
32439,Seattle,S,SEA,YES,773,0,NA,NA,Harbor Ave SW & Fauntleroy Ave SW
32440,Seattle,S,SEA,YES,773,0,NA,NA,Harbor Ave SW & SW Florida St
32441,Seattle,S,SEA,YES,773,0,NA,NA,Harbor Ave SW & SW Harbor Ln
32442,Seattle,S,SEA,YES,773,0,NA,NA,Harbor Ave SW & 30th Ave SW
32443,Seattle,S,SEA,YES,773,0,NA,NA,Harbor Ave SW & SW Harbor Ln
22009,Seattle,S,SEA,YES,50,0,NA,NA,Delridge Way SW & SW Genesee St
22010,Seattle,S,SEA,YES,125 H,1,NA,NA,Delridge Way SW & SW Genesee St
22050,Seattle,S,SEA,YES,H,1,NA,NA,Delridge Way SW & SW Hudson St
35270,Seattle,W,SEA,YES,75 982EN 986EN,1,NA,NA,NE 125th St & 15th Ave NE
35290,Seattle,W,SEA,YES,348 61,2,NA,NA,NE 103rd St & 5th Ave NE
23420,Seattle,S,SEA,YES,67,1,NA,NA,Roosevelt Way NE & NE 69th St
23500,Seattle,N,SEA,YES,67,1,NA,NA,11th Ave NE & NE 50th St
23510,Seattle,N,SEA,YES,67,0,NA,NA,11th Ave NE & NE 52nd St
23520,Seattle,N,SEA,YES,67,0,NA,NA,11th Ave NE & NE 55th St
23530,Seattle,N,SEA,YES,67,0,NA,NA,11th Ave NE & NE Ravenna Blvd
23540,Seattle,N,SEA,YES,67,0,NA,NA,12th Ave NE & NE 61st St
36830,Seattle,N,SEA,YES,48,1,NA,NA,23rd Ave & E Union St
36845,Seattle,N,SEA,YES,48,1,NA,NA,23rd Ave & E Olive St
36860,Seattle,N,SEA,YES,48,1,NA,NA,15th Ave NE & NE 45th St
640,Seattle,N,SEA,YES,101N 102N 150N 177N 545E,3,NA,NA,4th Ave & James St
648,Seattle,N,SEA,YES,111N 212N 218N 550EN 554EN,0,NA,NA,4th Ave & Cherry St
660,Seattle,N,SEA,YES,101N 102N 150N 177N 545E,3,NA,NA,4th Ave & Madison St
670,Seattle,N,SEA,YES,111N 212N 218N 550EN 554EN,0,NA,NA,4th Ave & Seneca St
1630,Seattle,S,SEA,YES,98,0,NA,NA,Westlake Ave & Olive Way
36910,Seattle,N,SEA,YES,45N,0,NA,NA,15th Ave NE & NE Ravenna Blvd
38530,Seattle,N,SEA,YES,372E,0,NA,NA,Ravenna Ave NE & NE 86th St
38550,Seattle,N,SEA,YES,372E,0,NA,NA,Ravenna Ave NE & NE 92nd St
1651,Seattle,W,SEA,YES,96N,0,NA,NA,S Jackson St & 5th Ave S
1652,Seattle,E,SEA,YES,96N,0,NA,NA,S Jackson St & 5th Ave S
1661,Seattle,W,SEA,YES,96N,0,NA,NA,S Jackson St & 7th Ave S
1662,Seattle,E,SEA,YES,96N,0,NA,NA,S Jackson St & 7th Ave S
1671,Seattle,W,SEA,YES,96N,0,NA,NA,S Jackson St & 12th Ave S
1672,Seattle,E,SEA,YES,96N,0,NA,NA,S Jackson St & 12th Ave S
1681,Seattle,S,SEA,YES,96N,0,NA,NA,14th Ave S & S Washington St
1682,Seattle,N,SEA,YES,96N,0,NA,NA,14th Ave S & S Washington St
2911,Seattle,S,SEA,YES,2,0,NA,NA,34th Ave & E Olive St
2920,Seattle,S,SEA,YES,2,0,NA,NA,34th Ave & E Pine St
40010,Seattle,N,SEA,YES,128,0,NA,NA,Sylvan Way SW & High Point Dr SW
40012,Seattle,W,SEA,YES,128,0,NA,NA,SW Morgan St & Lanham Pl SW
40016,Seattle,N,SEA,YES,125,0,NA,NA,23rd Ave SW & 22nd Ave SW
40018,Seattle,S,SEA,YES,125,0,NA,NA,22nd Ave SW & 23rd Ave SW
40020,Seattle,E,SEA,YES,125,0,NA,NA,SW Oregon St & Delridge Way SW
40030,Seattle,W,SEA,YES,40,0,NA,NA,N Northgate Way & Stone Ave N
30240,Seattle,N,SEA,YES,107,1,NA,NA,Beacon Ave S & S Cloverdale St
30250,Seattle,N,SEA,YES,107,0,NA,NA,Beacon Ave S & S Thistle St
30270,Seattle,N,SEA,YES,107,1,NA,NA,Beacon Ave S & S Monroe St
2930,Seattle,S,SEA,YES,2,1,NA,NA,34th Ave & E Union St
2950,Seattle,W,SEA,YES,2,0,NA,NA,E Union St & 31st Ave
2960,Seattle,W,SEA,YES,2,1,NA,NA,E Union St & 29th Ave
2970,Seattle,W,SEA,YES,2,1,NA,NA,E Union St & 27th Ave
2980,Seattle,W,SEA,YES,2,1,NA,NA,E Union St & 25th Ave
3000,Seattle,W,SEA,YES,2,1,NA,NA,E Union St & 20th Ave
3010,Seattle,W,SEA,YES,2,1,NA,NA,E Union St & 18th Ave
43080,Seattle,E,SEA,YES,345,0,NA,NA,N 130th St & Greenwood Ave N
43090,Seattle,E,SEA,YES,345,0,NA,NA,N 130th St & Dayton Ave N
30290,Seattle,N,SEA,YES,107,0,NA,NA,Beacon Ave S & S Holden St
30300,Seattle,N,SEA,YES,107,0,NA,NA,Beacon Ave S & S Webster St
30310,Seattle,N,SEA,YES,107,1,NA,NA,Beacon Ave S & 32nd Ave S
30320,Seattle,N,SEA,YES,107,1,NA,NA,Beacon Ave S & S Othello St
30330,Seattle,N,SEA,YES,107,0,NA,NA,Beacon Ave S & S Myrtle St
31547,Seattle,S,SEA,YES,33,0,NA,NA,Texas Way & W Government Way
31550,Seattle,W,SEA,YES,33,0,NA,NA,W Government Way & 36th Ave W
31552,Seattle,N,SEA,YES,33,0,NA,NA,Texas Way & W Government Way
31560,Seattle,W,SEA,YES,113 128 60,0,NA,NA,SW Roxbury St & 8th Ave SW
5440,Seattle,W,SEA,YES,45 61,0,NA,NA,N 85th St & Stone Ave N
5450,Seattle,W,SEA,YES,45 61,1,NA,NA,N 85th St & Aurora Ave N
5470,Seattle,W,SEA,YES,45 61,1,NA,NA,N 85th St & Fremont Ave N
7080,Seattle,S,SEA,YES,E,2,NA,NA,Aurora Ave N & N 105th St
7100,Seattle,S,SEA,YES,E,2,NA,NA,Aurora Ave N & N 100th St
43100,Seattle,E,SEA,YES,345,1,NA,NA,N 130th St & Linden Ave N
43110,Seattle,E,SEA,YES,345,1,NA,NA,N 130th St & Aurora Ave N
43130,Seattle,E,SEA,YES,345,0,NA,NA,N 130th St & Ashworth Ave N
31580,Seattle,W,SEA,YES,113 128 60,0,NA,NA,SW Roxbury St & 12th Ave SW
7120,Seattle,S,SEA,YES,E,1,NA,NA,Aurora Ave N & N 95th St
7140,Seattle,S,SEA,YES,E,1,NA,NA,Aurora Ave N & N 90th St
7180,Seattle,S,SEA,YES,E,1,NA,NA,Aurora Ave N & N 80th St
8810,Seattle,S,SEA,YES,7,1,NA,NA,Rainier Ave S & S Dawson St
8820,Seattle,S,SEA,YES,7,0,NA,NA,Rainier Ave S & S Brandon St
8840,Seattle,S,SEA,YES,7 9E,1,NA,NA,Rainier Ave S & S Orcas St
8850,Seattle,S,SEA,YES,7,0,NA,NA,Rainier Ave S & S Kenny St
8890,Seattle,S,SEA,YES,7 9E,1,NA,NA,Rainier Ave S & S Holly St
8905,Seattle,S,SEA,YES,7 9E,0,NA,NA,Rainier Ave S & S Myrtle St
8920,Seattle,S,SEA,YES,7 9E,1,NA,NA,Rainier Ave S & S Othello St
10240,Seattle,S,SEA,YES,303 322 70,0,NA,NA,Boren Ave & Virginia St
35331,Seattle,W,SEA,YES,322 61,0,NA,NA,NE Northgate Way & 24th Ave NE
35332,Seattle,E,SEA,YES,322 61,0,NA,NA,NE Northgate Way & 15th Ave NE
35333,Seattle,E,SEA,YES,322 61,0,NA,NA,NE Northgate Way & 19th Ave NE
36961,Seattle,W,SEA,YES,45,1,NA,NA,East Green Lake Dr N & 4th Ave NE
36991,Unknown,W,SEA,UNK,45,0,NA,NA,East Green Lake Dr N & Meridian Ave N
10305,Seattle,N,SEA,YES,303 322 70,0,NA,NA,Fairview Ave N & Harrison St
11566,Unknown,S,SEA,YES,10,0,NA,NA,15th Ave E & E Thomas St
11569,Unknown,N,SEA,YES,10,0,NA,NA,15th Ave & E Pine St
11590,Seattle,N,SEA,YES,10,0,NA,NA,15th Ave E & E Roy St
37020,Seattle,W,SEA,YES,45,0,NA,NA,East Green Lake Dr N & Wallingford Ave N
38567,Seattle,N,SEA,YES,522E,1,NA,NA,Lake City Way NE & NE 85th St
38570,Seattle,N,SEA,YES,372E,0,NA,NA,Lake City Way NE & NE 98th St
38590,Seattle,N,SEA,YES,372E,0,NA,NA,Lake City Way NE & 24th Ave NE
38610,Seattle,N,SEA,YES,372E,1,NA,NA,Lake City Way NE & NE 110th St
38620,Seattle,N,SEA,YES,322 372E 61,1,NA,NA,Lake City Way NE & NE 113th St
11600,Seattle,N,SEA,YES,10,0,NA,NA,15th Ave E & E Aloha St
11610,Seattle,N,SEA,YES,10,0,NA,NA,15th Ave E & E Prospect St
11620,Seattle,N,SEA,YES,10,0,NA,NA,15th Ave E & E Highland Dr
11630,Seattle,N,SEA,YES,10,0,NA,NA,Grandview Pl E & E Galer St
11640,Seattle,N,SEA,YES,10,0,NA,NA,Grandview Pl E & E Garfield St
13020,Seattle,E,SEA,YES,3,0,NA,NA,E Cherry St & 23rd Ave
13030,Seattle,E,SEA,YES,3,0,NA,NA,E Cherry St & 25th Ave
13040,Seattle,E,SEA,YES,3,0,NA,NA,E Cherry St & Martin L King Jr Way
13060,Seattle,E,SEA,YES,3,0,NA,NA,E Cherry St & 31st Ave
38650,Seattle,N,SEA,YES,322 372E 61,0,NA,NA,Lake City Way NE & NE 120th St
40035,Seattle,W,SEA,YES,40,1,NA,NA,N 105th St & Fremont Ave N
40038,Seattle,W,SEA,YES,40,1,NA,NA,N 105th St & Greenwood Ave N
40040,Seattle,W,SEA,YES,40,0,NA,NA,Holman Rd NW & 3rd Ave NW
40042,Seattle,W,SEA,YES,40,0,NA,NA,Holman Rd NW & 7th Ave NW
40044,Seattle,W,SEA,YES,40,0,NA,NA,Holman Rd NW & 9th Ave NW
40046,Seattle,W,SEA,YES,40,0,NA,NA,Holman Rd NW & 13th Ave NW
1559,Unknown,N,SEA,YES,113 125 21E 56 57 C H,1,NA,NA,Alaskan Way & Columbia St
2710,Seattle,N,SEA,YES,13 2,0,NA,NA,Queen Anne Ave N & Aloha St
2720,Seattle,N,SEA,YES,13 2,0,NA,NA,Queen Anne Ave N & Ward St
31360,Seattle,N,SEA,YES,31 33,0,NA,NA,Thorndyke Ave W & W Newton St
31370,Seattle,N,SEA,YES,31 33,0,NA,NA,Thorndyke Ave W & W Boston St
31380,Seattle,N,SEA,YES,31 33,0,NA,NA,Thorndyke Ave W & W Lynn St
31390,Seattle,N,SEA,YES,31 33,0,NA,NA,Thorndyke Ave W & 23rd Ave W
31400,Seattle,N,SEA,YES,31 33,0,NA,NA,22nd Ave W & Thorndyke Ave W
31410,Seattle,N,SEA,YES,31 33,0,NA,NA,22nd Ave W & W Armour St
31420,Seattle,N,SEA,YES,31 33,0,NA,NA,22nd Ave W & W Barrett St
32423,Seattle,N,SEA,YES,775,0,NA,NA,Alki Ave SW & 53rd Ave SW
32425,Seattle,N,SEA,YES,775,0,NA,NA,Alki Ave SW & Bonair Dr SW
2730,Seattle,N,SEA,YES,13 2,0,NA,NA,Queen Anne Ave N & Highland Dr
2760,Seattle,W,SEA,YES,2,0,NA,NA,W Galer St & 1st Ave W
2770,Seattle,W,SEA,YES,2,0,NA,NA,W Galer St & 3rd Ave W
2780,Seattle,W,SEA,YES,2,0,NA,NA,W Galer St & 5th Ave W
2790,Seattle,N,SEA,YES,2,0,NA,NA,6th Ave W & W Garfield St
4465,Seattle,N,SEA,YES,13,0,NA,NA,Queen Anne Ave N & Garfield St
32426,Seattle,N,SEA,YES,775,0,NA,NA,Alki Ave SW & Bonair Dr SW
32427,Seattle,N,SEA,YES,775,0,NA,NA,Alki Ave SW & Bonair Dr SW
32428,Seattle,N,SEA,YES,775,0,NA,NA,Alki Ave SW & Bonair Dr SW
32429,Seattle,N,SEA,YES,775,0,NA,NA,Alki Ave SW & SW California Pl
32430,Seattle,N,SEA,YES,775,0,NA,NA,Alki Ave SW & Harbor Ave SW
32431,Seattle,N,SEA,YES,775,0,NA,NA,Alki Ave SW & Harbor Ave SW
32432,Seattle,N,SEA,YES,775,0,NA,NA,Alki Ave SW & Harbor Ave SW
32433,Seattle,S,SEA,YES,775,0,NA,NA,Harbor Ave SW & SW Maryland Pl
621,Metro King County,N,SEA,YES,599N,0,NA,NA,Intl District Station AcRd & Transit Tunnel AcRd
623,Metro King County,S,SEA,YES,599N,0,NA,NA,Intl District Station AcRd & Transit Tunnel AcRd
628,Seattle,N,SEA,YES,111N 212N 218N 550EN 554EN,1,NA,NA,4th Ave S & S Washington St
1561,Unknown,N,SEA,UNK,113 125 21E 56 57 C H,1,NA,NA,SR 519 Hwy & S Jackson St
1562,Unknown,S,SEA,UNK,113 125 21E 56 57 C H,1,NA,NA,SR 519 Hwy & S Jackson St
6820,Seattle,N,SEA,YES,345 5,0,NA,NA,Greenwood Ave N & N 130th St
6840,Seattle,N,SEA,YES,345 5,0,NA,NA,Greenwood Ave N & N 134th St
6850,Seattle,N,SEA,YES,345 5,0,NA,NA,Greenwood Ave N & N 137th St
6870,Seattle,N,SEA,YES,345 5,0,NA,NA,Greenwood Ave N & N 143rd St
35230,Seattle,W,SEA,YES,65 75,1,NA,NA,NE 125th St & Lake City Way NE
35231,Seattle,W,SEA,YES,75,0,NA,NA,NE 125th St & 28th Ave NE
35233,Seattle,W,SEA,YES,75,1,NA,NA,NE 125th St & 25th Ave NE
35250,Seattle,W,SEA,YES,75,0,NA,NA,NE 125th St & 20th Ave NE
36774,Seattle,N,SEA,YES,48,1,NA,NA,23rd Ave S & S Judkins St
1619,Seattle,S,SEA,YES,98N,0,NA,NA,Westlake Ave & Virginia St
2800,Seattle,N,SEA,YES,2,0,NA,NA,6th Ave W & W Howe St
2810,Seattle,N,SEA,YES,2,0,NA,NA,6th Ave W & W Crockett St
2820,Seattle,N,SEA,YES,2,0,NA,NA,6th Ave W & W McGraw St
2830,Seattle,N,SEA,YES,2,0,NA,NA,6th Ave W & W Smith St
2840,Seattle,N,SEA,YES,2,0,NA,NA,6th Ave W & W Raye St
8608,Seattle,S,SEA,YES,106 634N 7 9E,0,NA,NA,Rainier Ave S & I-90 Ramp
8620,Seattle,S,SEA,YES,106 634N 7,0,NA,NA,Rainier Ave S & S State St
8660,Seattle,S,SEA,YES,106 48 634N 7,1,NA,NA,Rainier Ave S & S Bayview St
36791,Seattle,N,SEA,YES,48,1,NA,NA,23rd Ave & E Jefferson St
36800,Seattle,N,SEA,YES,48,0,NA,NA,23rd Ave & E Cherry St
38350,Seattle,S,SEA,YES,79,1,NA,NA,15th Ave NE & NE 75th St
38370,Seattle,S,SEA,YES,79,0,NA,NA,15th Ave NE & NE 70th St
8780,Seattle,S,SEA,YES,7,1,NA,NA,Rainier Ave S & S Alaska St
8790,Seattle,S,SEA,YES,7 9E,0,NA,NA,Rainier Ave S & S Edmunds St
10145,Seattle,W,SEA,YES,79,0,NA,NA,NE 50th St & 16th Ave NE
10170,Seattle,S,SEA,YES,70,0,NA,NA,Fairview Ave N & E Nelson Pl
10180,Seattle,S,SEA,YES,70,1,NA,NA,Fairview Ave N & Yale Ave N
10190,Seattle,S,SEA,YES,70,1,NA,NA,Fairview Ave N & Aloha St
8672,Seattle,N,SEA,YES,8,0,NA,NA,Martin L King Jr Way S & S Bayview St
10040,Seattle,W,SEA,YES,79,0,NA,NA,NE 55th St & 33rd Ave NE
10050,Seattle,W,SEA,YES,79,0,NA,NA,NE 55th St & 30th Ave NE
10060,Seattle,W,SEA,YES,79,0,NA,NA,NE 55th St & 27th Ave NE
10070,Seattle,W,SEA,YES,79,1,NA,NA,NE 55th St & 25th Ave NE
10083,Seattle,N,SEA,YES,79,1,NA,NA,Ravenna Ave NE & Ravenna Pl NE
10100,Seattle,W,SEA,YES,79,0,NA,NA,NE Ravenna Blvd & Park Rd NE
10110,Seattle,S,SEA,YES,79,0,NA,NA,20th Ave NE & NE 55th St
10120,Seattle,S,SEA,YES,79,0,NA,NA,20th Ave NE & NE 52nd St
38390,Seattle,N,SEA,YES,79,1,NA,NA,15th Ave NE & NE 65th St
38410,Seattle,N,SEA,YES,79,0,NA,NA,15th Ave NE & NE 70th St
39930,Seattle,E,SEA,YES,22,0,NA,NA,SW Thistle St & 34th Ave SW
39940,Seattle,E,SEA,YES,22,0,NA,NA,SW Thistle St & 31st Ave SW
39965,Seattle,E,SEA,YES,22,0,NA,NA,SW Thistle St & 25th Ave SW
10130,Seattle,W,SEA,YES,79,0,NA,NA,NE 50th St & 19th Ave NE
11357,Seattle,W,SEA,YES,31 32,0,NA,NA,NE 45th St & 20th Ave NE
11390,Seattle,S,SEA,YES,10,1,NA,NA,15th Ave E & E Prospect St
11400,Seattle,S,SEA,YES,10,1,NA,NA,15th Ave E & E Aloha St
11410,Seattle,S,SEA,YES,10,1,NA,NA,15th Ave E & E Roy St
11430,Seattle,S,SEA,YES,10,0,NA,NA,15th Ave E & E Republican St
39990,Seattle,S,SEA,YES,125 60,1,NA,NA,25th Ave SW & SW Barton St
15120,Seattle,S,SEA,YES,56 57,0,NA,NA,SW Admiral Way & SW City View St
15145,Seattle,E,SEA,YES,21,0,NA,NA,SW Spokane St & West Seattle Ramp
12820,Seattle,W,SEA,YES,3 4,1,NA,NA,E Jefferson St & 15th Ave
12840,Seattle,W,SEA,YES,193E 3 303 4,1,NA,NA,E Jefferson St & 12th Ave
12890,Seattle,W,SEA,YES,3 4,1,NA,NA,James St & 8th Ave
15000,Seattle,E,SEA,YES,50 56,0,NA,NA,SW Admiral Way & SW Stevens St
43030,Seattle,W,SEA,YES,345,0,NA,NA,N 130th St & Ashworth Ave N
43050,Seattle,W,SEA,YES,345,1,NA,NA,N 130th St & Aurora Ave N
16900,Seattle,S,SEA,YES,345 365,0,NA,NA,Densmore Ave N & N 122nd St
16920,Seattle,S,SEA,YES,345 365,1,NA,NA,Meridian Ave N & N 120th St
16940,Seattle,S,SEA,YES,345 365,1,NA,NA,Meridian Ave N & N 115th St
15002,Seattle,E,SEA,YES,50 56,0,NA,NA,SW Admiral Way & 51st Ave SW
15030,Seattle,E,SEA,YES,50 56 57,0,NA,NA,SW Admiral Way & SW Lander St
15040,Seattle,E,SEA,YES,50 56 57,1,NA,NA,SW Admiral Way & 47th Ave SW
15050,Seattle,E,SEA,YES,50 56 57,1,NA,NA,SW Admiral Way & 45th Ave SW
15070,Seattle,E,SEA,YES,56 57,0,NA,NA,SW Admiral Way & 41st Ave SW
15080,Seattle,E,SEA,YES,56 57,0,NA,NA,SW Admiral Way & 39th Ave SW
15090,Seattle,E,SEA,YES,56 57,0,NA,NA,SW Admiral Way & Belvidere Ave SW
15100,Seattle,S,SEA,YES,56 57,1,NA,NA,SW Admiral Way & SW Olga St
43060,Seattle,W,SEA,YES,345,1,NA,NA,N 130th St & Linden Ave N
43070,Seattle,W,SEA,YES,345,0,NA,NA,N 130th St & Evanston Ave N
23370,Seattle,S,SEA,YES,67,0,NA,NA,Roosevelt Way NE & NE 80th St
16810,Seattle,S,SEA,YES,365,0,NA,NA,Meridian Ave N & N 143rd St
16830,Seattle,S,SEA,YES,365,0,NA,NA,Meridian Ave N & Roosevelt Way N
16840,Seattle,S,SEA,YES,365,0,NA,NA,Meridian Ave N & N 135th St
16850,Seattle,S,SEA,YES,365,0,NA,NA,Meridian Ave N & N 133rd St
16870,Seattle,W,SEA,YES,345 365,0,NA,NA,N 128th St & Meridian Ave N
16880,Seattle,S,SEA,YES,345 365,0,NA,NA,Densmore Ave N & N 128th St
16890,Seattle,S,SEA,YES,345 365,0,NA,NA,Densmore Ave N & N 125th St
18315,Seattle,S,SEA,YES,62,1,NA,NA,Dexter Ave N & Crockett St
18320,Seattle,S,SEA,YES,62,1,NA,NA,Dexter Ave N & Howe St
18340,Seattle,S,SEA,YES,62,1,NA,NA,Dexter Ave N & Galer St
2860,Seattle,N,SEA,YES,2,0,NA,NA,Madrona Dr & Newport Way
2870,Seattle,N,SEA,YES,2,1,NA,NA,Madrona Dr & E Pine St
2880,Seattle,N,SEA,YES,2,0,NA,NA,Madrona Dr & E Olive St
2890,Seattle,W,SEA,YES,2,0,NA,NA,Madrona Dr & Madrona Pl E
2900,Seattle,W,SEA,YES,2,0,NA,NA,E Denny Way & E Florence Ct
2910,Seattle,S,SEA,YES,2,0,NA,NA,34th Ave & E Howell St
5350,Seattle,E,SEA,YES,45 61,1,NA,NA,N 85th St & Fremont Ave N
5370,Seattle,E,SEA,YES,45 61,1,NA,NA,N 85th St & Aurora Ave N
5380,Seattle,E,SEA,YES,45 61,1,NA,NA,N 85th St & Stone Ave N
18359,Seattle,S,SEA,YES,62,1,NA,NA,Dexter Ave N & Aloha St
18370,Seattle,S,SEA,YES,62,1,NA,NA,Dexter Ave N & Roy St
19921,Seattle,N,SEA,YES,21 773,1,NA,NA,SW Avalon Way & SW Genesee St
19922,Seattle,E,SEA,YES,50,0,NA,NA,SW Genesee St & 30th Ave SW
18402,Seattle,S,SEA,YES,62,0,NA,NA,Dexter Ave & Denny Way
18455,Seattle,N,SEA,YES,62,0,NA,NA,Dexter Ave N & Harrison St
19980,Seattle,S,SEA,YES,21 773,0,NA,NA,SW Avalon Way & SW Genesee St
19940,Seattle,N,SEA,YES,21 773,1,NA,NA,SW Avalon Way & SW Charlestown St
19978,Seattle,W,SEA,YES,50,0,NA,NA,SW Genesee St & 30th Ave SW
21860,Seattle,S,SEA,YES,124,0,NA,NA,Airport Way S & S Holgate St
21870,Seattle,S,SEA,YES,124,0,NA,NA,Airport Way S & S Walker St
10210,Seattle,S,SEA,YES,303 322 70,1,NA,NA,Fairview Ave N & Mercer St
11480,Seattle,W,SEA,YES,10 12,1,NA,NA,E Pine St & 15th Ave
11490,Seattle,W,SEA,YES,10 12,0,NA,NA,E Pine St & 13th Ave
11520,Seattle,E,SEA,YES,10 12,0,NA,NA,E Pine St & 12th Ave
11535,Seattle,E,SEA,YES,12,0,NA,NA,E Pine St & 15th Ave
21880,Seattle,S,SEA,YES,124,0,NA,NA,Airport Way S & S Stacy St
21890,Seattle,S,SEA,YES,124,0,NA,NA,Airport Way S & S Lander St
21910,Seattle,S,SEA,YES,124,0,NA,NA,Airport Way S & S Stevens St
21920,Seattle,S,SEA,YES,124,0,NA,NA,Airport Way S & Diagonal Ave S
23273,Seattle,W,SEA,YES,322 67 75,0,NA,NA,NE 100th St & 4th Ave NE
23276,Seattle,E,SEA,YES,322,1,NA,NA,NE 100th St & 4th Ave NE
5402,Seattle,W,SEA,YES,31 32,0,NA,NA,NE 42nd St & 8th Ave NE
6990,Seattle,S,SEA,YES,E,2,NA,NA,Aurora Ave N & N 135th St
7000,Seattle,S,SEA,YES,E,2,NA,NA,Aurora Ave N & N 130th St
7010,Seattle,S,SEA,YES,E,1,NA,NA,Aurora Ave N & N 125th St
20040,Seattle,W,SEA,YES,50 773,0,NA,NA,SW Alaska St & 42nd Ave SW
20050,Seattle,S,SEA,YES,128 22 773,0,NA,NA,California Ave SW & Erskine Way SW
20070,Seattle,S,SEA,YES,128 22 773,1,NA,NA,California Ave SW & SW Dawson St
21940,Seattle,S,SEA,YES,124,0,NA,NA,Airport Way S & S Spokane St
26840,Seattle,N,SEA,YES,40,0,NA,NA,Westlake Ave N & Westlake Ave N
26850,Seattle,N,SEA,YES,40,0,NA,NA,Westlake Ave N & Westlake Aly N
26870,Seattle,E,SEA,YES,31 32 62,0,NA,NA,N 35th St & Troll Ave N
26885,Seattle,E,SEA,YES,31 32 62,1,NA,NA,N 35th St & Woodland Park Ave N
26901,Seattle,E,SEA,YES,31 32,0,NA,NA,N 35th St & Carr Pl N
11565,Unknown,N,SEA,YES,10,0,NA,NA,15th Ave E & E Thomas St
12900,Seattle,E,SEA,YES,3 4,1,NA,NA,James St & 8th Ave
12930,Seattle,E,SEA,YES,193E 3 303 322 4,0,NA,NA,E Jefferson St & Broadway
12950,Seattle,E,SEA,YES,193E 3 303 4,1,NA,NA,E Jefferson St & 12th Ave
12960,Seattle,E,SEA,YES,3 4,0,NA,NA,E Jefferson St & 14th Ave
12991,Seattle,E,SEA,YES,3 4,0,NA,NA,E Jefferson St & 20th Ave
26920,Seattle,N,SEA,YES,31 32,1,NA,NA,Wallingford Ave N & N 35th St
28630,Seattle,N,SEA,YES,28E,0,NA,NA,8th Ave NW & NW 90th St
28650,Seattle,N,SEA,YES,28E,0,NA,NA,8th Ave NW & NW 95th St
28670,Seattle,N,SEA,YES,28E,0,NA,NA,8th Ave NW & NW 100th Pl
7040,Seattle,S,SEA,YES,E,1,NA,NA,Aurora Ave N & N 115th St
8710,Seattle,S,SEA,YES,7,1,NA,NA,Rainier Ave S & S Walden St
8730,Seattle,S,SEA,YES,7,1,NA,NA,Rainier Ave S & Letitia Ave S
8740,Seattle,S,SEA,YES,7 9E,1,NA,NA,Rainier Ave S & S Andover St
29930,Seattle,E,SEA,YES,31 32 65 75,0,NA,NA,NE 45th St & 36th Ave NE
29950,Seattle,E,SEA,YES,31 32,0,NA,NA,NE 45th St & 40th Ave NE
29952,Seattle,E,SEA,YES,31 32,0,NA,NA,NE 45th St & 42nd Ave NE
30122,Seattle,S,SEA,YES,7,1,NA,NA,Seward Park Ave S & S Fisher Pl
31340,Seattle,W,SEA,YES,33,0,NA,NA,W Blaine St & 27th Ave W
25765,Seattle,N,SEA,YES,65,1,NA,NA,Montlake Blvd NE & NE Pacific Pl
27290,Seattle,S,SEA,YES,27,0,NA,NA,Lake Dell Ave & E Spruce St
27300,Seattle,W,SEA,YES,27,0,NA,NA,Lake Dell Ave & 32nd Ave
27310,Seattle,W,SEA,YES,27,0,NA,NA,E Yesler Way & 32nd Ave
27320,Seattle,W,SEA,YES,27,1,NA,NA,E Yesler Way & 29th Ave
810,Seattle,S,SEA,YES,257N 311N 545E 630,0,NA,NA,5th Ave & Marion St
27335,Seattle,W,SEA,YES,27 8,1,NA,NA,E Yesler Way & 27th Ave
27360,Seattle,W,SEA,YES,27,1,NA,NA,E Yesler Way & 21st Ave
27370,Seattle,W,SEA,YES,27,0,NA,NA,E Yesler Way & 19th Ave
27380,Seattle,W,SEA,YES,27,0,NA,NA,E Yesler Way & 17th Ave
820,Seattle,S,SEA,YES,257N 311N 545E 630,1,NA,NA,5th Ave & Jefferson St
860,Seattle,N,SEA,YES,257 311,3,NA,NA,5th Ave & James St
29213,Seattle,E,SEA,YES,44,1,NA,NA,NW Market St & Tallman Ave NW
30480,Seattle,W,SEA,YES,50,0,NA,NA,S Columbian Way & VA Hospital AcRd
30489,Seattle,S,SEA,YES,50,0,NA,NA,S Columbian Way & S Oregon St
3152,Seattle,E,SEA,YES,2,0,NA,NA,Seneca St & Boren Ave
3153,Seattle,E,SEA,YES,2,0,NA,NA,Seneca St & Summit Ave
3154,Seattle,E,SEA,YES,2,0,NA,NA,Seneca St & Boylston Ave
30490,Seattle,N,SEA,YES,50,0,NA,NA,S Columbian Way & S Oregon St
30510,Seattle,N,SEA,YES,107 50 60,1,NA,NA,15th Ave S & S Dakota St
30520,Seattle,W,SEA,YES,50,1,NA,NA,S Columbian Way & 15th Ave S
30530,Seattle,N,SEA,YES,50,0,NA,NA,S Columbian Way & S Spokane St
31700,Seattle,W,SEA,YES,60,1,NA,NA,S Cloverdale St & 8th Ave S
31720,Seattle,W,SEA,YES,60,1,NA,NA,S Cloverdale St & 5th Ave S
3156,Seattle,E,SEA,YES,2,0,NA,NA,E Madison St & 12th Ave
3160,Seattle,E,SEA,YES,2,0,NA,NA,E Union St & 13th Ave
3190,Seattle,E,SEA,YES,2,0,NA,NA,E Union St & 18th Ave
3200,Seattle,E,SEA,YES,2,0,NA,NA,E Union St & 20th Ave
5580,Seattle,S,SEA,YES,345 5,1,NA,NA,Greenwood Ave N & N 137th St
5590,Seattle,S,SEA,YES,345 5,1,NA,NA,Greenwood Ave N & N 134th St
31736,Seattle,E,SEA,YES,125 22 60,0,NA,NA,SW Barton Pl & 22nd Ave SW
32620,Seattle,N,SEA,YES,773,0,NA,NA,Harbor Ave SW & SW Florida St
32630,Seattle,N,SEA,YES,773,0,NA,NA,Harbor Ave SW & Fauntleroy Ave SW
32640,Seattle,N,SEA,YES,773,0,NA,NA,Harbor Ave SW & Fairmount Ave SW
5610,Seattle,S,SEA,YES,5,1,NA,NA,Greenwood Ave N & N 130th St
5630,Seattle,S,SEA,YES,5,1,NA,NA,Greenwood Ave N & N 125th St
5640,Seattle,S,SEA,YES,5,0,NA,NA,Greenwood Ave N & N 122nd St
5660,Seattle,S,SEA,YES,5,1,NA,NA,Greenwood Ave N & N 117th St
5670,Seattle,S,SEA,YES,5,0,NA,NA,Greenwood Ave N & N 115th St
7360,Seattle,S,SEA,YES,62,1,NA,NA,Stone Way N & N 43rd St
7380,Seattle,S,SEA,YES,62,1,NA,NA,Stone Way N & N 40th St
32660,Seattle,N,SEA,YES,773,0,NA,NA,Harbor Ave SW & Fairmount Ave SW
35440,Seattle,E,SEA,YES,75,0,NA,NA,NE 125th St & 28th Ave NE
35540,Seattle,E,SEA,YES,45,0,NA,NA,NW 85th St & 31st Ave NW
35550,Seattle,E,SEA,YES,45,0,NA,NA,NW 85th St & 29th Ave NW
35551,Seattle,E,SEA,YES,45,1,NA,NA,NW 85th St & 24th Ave NW
35580,Seattle,E,SEA,YES,40 45,0,NA,NA,NW 85th St & 20th Ave NW
7382,Seattle,S,SEA,YES,62,0,NA,NA,Stone Way N & N 38th St
9060,Seattle,S,SEA,YES,7,0,NA,NA,Waters Ave S & S Carver St
9080,Seattle,S,SEA,YES,7,0,NA,NA,Waters Ave S & 61st Ave S
9090,Seattle,S,SEA,YES,7,0,NA,NA,Waters Ave S & 62nd Ave S
9110,Seattle,S,SEA,YES,7,0,NA,NA,62nd Ave S & S Cooper St
35630,Seattle,E,SEA,YES,45,0,NA,NA,NW 85th St & 11th Ave NW
37086,Seattle,W,SEA,YES,45,0,NA,NA,NW 85th St & 24th Ave NW
37087,Seattle,W,SEA,YES,45,0,NA,NA,NW 85th St & 27th Ave NW
37088,Seattle,W,SEA,YES,45,0,NA,NA,NW 85th St & 28th Ave NW
37089,Seattle,W,SEA,YES,45,0,NA,NA,NW 85th St & 30th Ave NW
37100,Seattle,S,SEA,YES,128 775,0,NA,NA,California Ave SW & SW Seattle St
37110,Seattle,S,SEA,YES,128 775,1,NA,NA,California Ave SW & SW Massachusetts St
37120,Seattle,S,SEA,YES,775,0,NA,NA,California Ave SW & SW Holgate St
9133,Seattle,S,SEA,YES,75 79,1,NA,NA,University Way NE & NE 45th St
10400,Seattle,N,SEA,YES,79,0,NA,NA,20th Ave NE & NE 50th St
10410,Seattle,N,SEA,YES,79,0,NA,NA,20th Ave NE & NE 52nd St
10420,Seattle,N,SEA,YES,79,0,NA,NA,20th Ave NE & NE 54th St
10430,Seattle,E,SEA,YES,79,0,NA,NA,NE Ravenna Blvd & 21st Ave NE
10445,Seattle,S,SEA,YES,79,0,NA,NA,Ravenna Ave NE & NE 54th St
10460,Seattle,E,SEA,YES,79,0,NA,NA,NE 55th St & 25th Ave NE
37140,Seattle,S,SEA,YES,128 775,0,NA,NA,California Ave SW & SW Walker St
38840,Seattle,S,SEA,YES,348,1,NA,NA,15th Ave NE & NE 143rd St
38850,Seattle,S,SEA,YES,348,0,NA,NA,15th Ave NE & NE 140th St
38870,Seattle,S,SEA,YES,348,1,NA,NA,15th Ave NE & NE 135th St
10470,Seattle,E,SEA,YES,79,0,NA,NA,NE 55th St & 27th Ave NE
10480,Seattle,E,SEA,YES,79,0,NA,NA,NE 55th St & 30th Ave NE
10490,Seattle,E,SEA,YES,79,0,NA,NA,NE 55th St & 33rd Ave NE
11800,Seattle,N,SEA,YES,14,0,NA,NA,31st Ave S & S Day St
11820,Seattle,N,SEA,YES,14,1,NA,NA,31st Ave S & S Norman St
11840,Seattle,N,SEA,YES,14,0,NA,NA,31st Ave S & S Dearborn St
11860,Seattle,N,SEA,YES,14,0,NA,NA,31st Ave S & S King St
11870,Seattle,W,SEA,YES,14,1,NA,NA,S Jackson St & 30th Ave S
11880,Seattle,W,SEA,YES,14,0,NA,NA,S Jackson St & 28th Ave S
40078,Seattle,S,SEA,YES,31,0,NA,NA,Thorndyke Ave W & W Blaine St
41290,Seattle,S,SEA,YES,13 4,0,NA,NA,3rd Ave W & W Smith St
11890,Seattle,W,SEA,YES,14 8,1,NA,NA,S Jackson St & Martin L King Jr Way S
11920,Seattle,W,SEA,YES,14,1,NA,NA,S Jackson St & 20th Pl S
13270,Seattle,S,SEA,YES,12,0,NA,NA,19th Ave & E Denny Way
41300,Seattle,S,SEA,YES,13 4,0,NA,NA,3rd Ave W & W McGraw St
41320,Seattle,S,SEA,YES,13,1,NA,NA,Queen Anne Ave N & W Garfield St
41340,Seattle,W,SEA,YES,13 4,0,NA,NA,W McGraw St & Queen Anne Ave N
41350,Seattle,W,SEA,YES,13 4,0,NA,NA,W McGraw St & 3rd Ave W
41360,Seattle,N,SEA,YES,13 4,0,NA,NA,3rd Ave W & W Smith St
41370,Seattle,N,SEA,YES,13 4,0,NA,NA,3rd Ave W & W Raye St
41380,Seattle,N,SEA,YES,13 4,0,NA,NA,3rd Ave W & W Armour St
41430,Seattle,E,SEA,YES,45,1,NA,NA,NW 85th St & 8th Ave NW
13291,Seattle,E,SEA,YES,60 636N,0,NA,NA,Madison St & Boren Ave
15380,Seattle,S,SEA,YES,21 50,2,NA,NA,1st Ave S & S Lander St
43765,Seattle,N,SEA,YES,4 8,1,NA,NA,Martin L King Jr Way S & S Irving St
17170,Seattle,S,SEA,YES,62,1,NA,NA,Woodlawn Ave NE & 5th Ave NE
17180,Seattle,W,SEA,YES,62,1,NA,NA,Woodlawn Ave NE & 1st Ave NE
17209,Seattle,S,SEA,YES,62,1,NA,NA,Woodlawn Ave N & N 63rd St
17230,Seattle,S,SEA,YES,62,0,NA,NA,Kirkwood Pl N & N 59th St
17250,Seattle,W,SEA,YES,62,0,NA,NA,N 56th St & Keystone Pl N
18680,Seattle,S,SEA,YES,31,0,NA,NA,W Nickerson St & W Emerson St
18696,Seattle,W,SEA,YES,40,1,NA,NA,NW Leary Way & 15th Ave NW
18706,Seattle,N,SEA,YES,40,0,NA,NA,Leary Ave NW & NW Ione Pl
18720,Seattle,N,SEA,YES,40,0,NA,NA,Leary Ave NW & NW Vernon Pl
20580,Seattle,S,SEA,YES,24,0,NA,NA,West Viewmont Way W & W Armour St
20590,Seattle,S,SEA,YES,24,0,NA,NA,West Viewmont Way W & W Raye St
20600,Seattle,S,SEA,YES,24,0,NA,NA,West Viewmont Way W & 42nd Ave W
20610,Seattle,S,SEA,YES,24,1,NA,NA,West Viewmont Way W & W Parkmont Pl
20620,Seattle,S,SEA,YES,24,0,NA,NA,West Viewmont Way W & Montavista Pl W
20630,Seattle,S,SEA,YES,24,0,NA,NA,West Viewmont Way W & Constance Dr W
20640,Seattle,E,SEA,YES,24,0,NA,NA,Viewmont Way W & Edgemont Pl W
20670,Seattle,E,SEA,YES,31,1,NA,NA,W McGraw St & 32nd Ave W
22158,Unknown,S,SEA,UNK,H,1,NA,NA,Delridge Way SW & SW Holden St
22165,Seattle,S,SEA,YES,22 H,1,NA,NA,Delridge Way SW & SW Thistle St
22170,Seattle,E,SEA,YES,128,0,NA,NA,Dumar Way SW & SW Orchard St
22174,Unknown,S,SEA,UNK,22 H,0,NA,NA,21st Ave SW & SW Henderson St
22180,Seattle,E,SEA,YES,128,0,NA,NA,SW Austin St & Dumar Way SW
22184,Unknown,N,SEA,UNK,125 22 60 H,1,NA,NA,Delridge Way SW & SW Henderson St
22190,Seattle,S,SEA,YES,125 128,0,NA,NA,16th Ave SW & SW Holden St
23750,Seattle,N,SEA,YES,322 348 61 67 75,1,NA,NA,5th Ave NE & NE 103rd St
35336,Seattle,W,SEA,YES,322 61,0,NA,NA,NE Northgate Way & 19th Ave NE
35338,Seattle,W,SEA,YES,322 61,0,NA,NA,NE Northgate Way & 15th Ave NE
35350,Seattle,E,SEA,YES,75,0,NA,NA,NE 125th St & Roosevelt Way NE
35380,Seattle,E,SEA,YES,75,1,NA,NA,NE 125th St & 15th Ave NE
35400,Seattle,E,SEA,YES,75,0,NA,NA,NE 125th St & 20th Ave NE
35420,Seattle,E,SEA,YES,75,0,NA,NA,NE 125th St & 25th Ave NE
37040,Seattle,W,SEA,YES,45,1,NA,NA,NW 85th St & 3rd Ave NW
43706,Seattle,S,SEA,YES,8,0,NA,NA,Martin L King Jr Way E & E John St
5560,Seattle,S,SEA,YES,345 5,1,NA,NA,Greenwood Ave N & N 143rd St
7200,Seattle,S,SEA,YES,E,1,NA,NA,Aurora Ave N & N 76th St
37060,Seattle,W,SEA,YES,45,0,NA,NA,NW 85th St & 8th Ave NW
37074,Seattle,W,SEA,YES,45,0,NA,NA,NW 85th St & 12th Ave NW
37078,Seattle,W,SEA,YES,40 45,0,NA,NA,NW 85th St & 22nd Ave NW
37080,Seattle,W,SEA,YES,45,0,NA,NA,NW 85th St & Mary Ave NW
37083,Seattle,W,SEA,YES,40 45,0,NA,NA,NW 85th St & 19th Ave NW
8940,Seattle,S,SEA,YES,7 9E,1,NA,NA,Rainier Ave S & S Holden St
8970,Seattle,S,SEA,YES,7 9E,0,NA,NA,Rainier Ave S & S Rose St
8990,Seattle,S,SEA,YES,7 9E,0,NA,NA,Rainier Ave S & S Cloverdale St
9010,Seattle,S,SEA,YES,106 107 7,1,NA,NA,Rainier Ave S & 51st Ave S
9030,Seattle,E,SEA,YES,7,0,NA,NA,Rainier Ave S & 54th Ave S
38670,Seattle,N,SEA,YES,65,0,NA,NA,30th Ave NE & NE 127th St
38680,Seattle,N,SEA,YES,65,0,NA,NA,30th Ave NE & NE 130th St
38700,Seattle,N,SEA,YES,65,0,NA,NA,30th Ave NE & NE 135th St
38720,Seattle,N,SEA,YES,65,0,NA,NA,30th Ave NE & NE 140th St
40052,Seattle,E,SEA,YES,40,0,NA,NA,Holman Rd NW & Holman Rd NW
40054,Seattle,E,SEA,YES,40,0,NA,NA,Holman Rd NW & 9th Ave NW
40056,Seattle,E,SEA,YES,40,1,NA,NA,Holman Rd NW & 7th Ave NW
40058,Seattle,E,SEA,YES,40,0,NA,NA,Holman Rd NW & 3rd Ave NW
10340,Seattle,N,SEA,YES,70,1,NA,NA,Fairview Ave N & Yale Ave N
10350,Seattle,N,SEA,YES,70,0,NA,NA,Fairview Ave N & Yale Ave N
10370,Seattle,E,SEA,YES,79,0,NA,NA,NE 50th St & University Way NE
10380,Seattle,E,SEA,YES,79,0,NA,NA,NE 50th St & 16th Ave NE
40060,Seattle,E,SEA,YES,40,1,NA,NA,Holman Rd N & Greenwood Ave N
40065,Seattle,E,SEA,YES,40,1,NA,NA,N 105th St & Fremont Ave N
40070,Seattle,E,SEA,YES,40,0,NA,NA,N Northgate Way & Stone Ave N
11700,Seattle,W,SEA,YES,14,1,NA,NA,S McClellan St & Lake Park Dr S
11720,Seattle,W,SEA,YES,14,0,NA,NA,S McClellan St & 31st Ave S
11730,Seattle,N,SEA,YES,14,0,NA,NA,31st Ave S & S Lander St
11750,Seattle,N,SEA,YES,14,0,NA,NA,31st Ave S & S College St
11770,Seattle,N,SEA,YES,14,0,NA,NA,31st Ave S & S Plum St
11790,Seattle,N,SEA,YES,14,0,NA,NA,31st Ave S & S Massachusetts St
13190,Seattle,W,SEA,YES,12,0,NA,NA,Interlaken Turnback Loop & 19th Ave E
13210,Seattle,S,SEA,YES,12,0,NA,NA,19th Ave E & E Highland Dr
13220,Seattle,S,SEA,YES,12,0,NA,NA,19th Ave E & E Prospect St
13230,Seattle,S,SEA,YES,12,1,NA,NA,19th Ave E & E Aloha St
13240,Seattle,S,SEA,YES,12,1,NA,NA,19th Ave E & E Mercer St
13250,Seattle,S,SEA,YES,12,1,NA,NA,19th Ave E & E Harrison St
13260,Seattle,S,SEA,YES,12,1,NA,NA,19th Ave E & E John St
13262,Unknown,W,SEA,YES,2,0,NA,NA,E Union St & 12th Ave
13264,Unknown,W,SEA,UNK,60 636N,0,NA,NA,Madison St & Boylston Ave
13266,Unknown,W,SEA,UNK,60 636N,0,NA,NA,Madison St & Boren Ave
15230,Seattle,N,SEA,YES,21 50,1,NA,NA,1st Ave S & S Lander St
17024,Seattle,N,SEA,YES,345 365 40 61,1,NA,NA,1st Ave NE & NE 95th St
17040,Seattle,S,SEA,YES,61,1,NA,NA,Wallingford Ave N & N 90th St
17070,Seattle,S,SEA,YES,45,1,NA,NA,Wallingford Ave N & N 82nd St
17080,Seattle,S,SEA,YES,45,1,NA,NA,Wallingford Ave N & N 80th St
17081,Unknown,S,SEA,UNK,45,1,NA,NA,Wallingford Ave N & East Green Lake Dr N
18580,Seattle,N,SEA,YES,62,0,NA,NA,Dexter Ave N & Halladay St
18590,Seattle,N,SEA,YES,62,0,NA,NA,Dexter Ave N & 4th Ave N
18600,Seattle,W,SEA,YES,31 32,0,NA,NA,Nickerson St & 3rd Ave N
18610,Seattle,W,SEA,YES,31 32,0,NA,NA,Nickerson St & Dravus St
18620,Seattle,W,SEA,YES,31 32,0,NA,NA,Nickerson St & Cremona St
18640,Seattle,W,SEA,YES,31 32,0,NA,NA,W Nickerson St & 6th Ave W
18650,Seattle,W,SEA,YES,31 32,0,NA,NA,W Nickerson St & 8th Ave W
18660,Seattle,W,SEA,YES,31 32,0,NA,NA,W Nickerson St & Jesse Ave W
18670,Seattle,W,SEA,YES,31 32,0,NA,NA,W Nickerson St & 11th Ave W
20220,Seattle,S,SEA,YES,C,0,NA,NA,Fauntleroy Way SW & SW Rose St
20270,Seattle,E,SEA,YES,C,0,NA,NA,SW Wildwood Pl & 46th Ave SW
20540,Seattle,S,SEA,YES,24,0,NA,NA,West Viewmont Way W & W Ruffner St
20550,Seattle,S,SEA,YES,24,0,NA,NA,West Viewmont Way W & W Bertona St
20560,Seattle,S,SEA,YES,24,0,NA,NA,West Viewmont Way W & W Dravus St
20570,Seattle,S,SEA,YES,24,0,NA,NA,West Viewmont Way W & W Barrett St
22074,Unknown,N,SEA,UNK,H,1,NA,NA,Delridge Way SW & SW Findlay St
22075,Unknown,S,SEA,UNK,H,1,NA,NA,Delridge Way SW & SW Findlay St
22099,Seattle,S,SEA,YES,H,1,NA,NA,Delridge Way SW & SW Graham St
22120,Seattle,S,SEA,YES,H,1,NA,NA,Delridge Way SW & SW Holly St
41270,Seattle,S,SEA,YES,13 4,1,NA,NA,3rd Ave W & W Fulton St
41280,Seattle,S,SEA,YES,13 4,0,NA,NA,3rd Ave W & W Raye St
43710,Seattle,S,SEA,YES,8 988EN,0,NA,NA,Martin L King Jr Way & E Olive St
43712,Seattle,S,SEA,YES,8,1,NA,NA,Martin L King Jr Way & E Union St
43714,Seattle,S,SEA,YES,8,0,NA,NA,Martin L King Jr Way & E Marion St
43716,Seattle,S,SEA,YES,8,0,NA,NA,Martin L King Jr Way & E Cherry St
23580,Seattle,N,SEA,YES,67,0,NA,NA,12th Ave NE & NE 70th St
23600,Seattle,W,SEA,YES,67,0,NA,NA,NE 75th St & 12th Ave NE
27180,Seattle,N,SEA,YES,27,0,NA,NA,Lakeside Ave S & S Day St
27190,Seattle,N,SEA,YES,27,0,NA,NA,Lakeside Ave S & S Judkins St
27200,Seattle,N,SEA,YES,27,0,NA,NA,Lakeside Ave S & S Charles St
27210,Seattle,N,SEA,YES,27,0,NA,NA,Lakeside Ave S & S Lane St
27230,Seattle,N,SEA,YES,27,0,NA,NA,Lakeside Ave S & S Leschi Pl
27240,Seattle,N,SEA,YES,27,0,NA,NA,Lakeside Ave S & Lake Washington Blvd
43720,Seattle,S,SEA,YES,8,0,NA,NA,Martin L King Jr Way & E Alder St
43724,Seattle,S,SEA,YES,8,0,NA,NA,Martin L King Jr Way S & S Jackson St
43728,Seattle,S,SEA,YES,8,0,NA,NA,Martin L King Jr Way S & S Dearborn St
730,Seattle,N,SEA,YES,554EN,0,NA,NA,4th Ave & Lenora St
27260,Seattle,W,SEA,YES,27,0,NA,NA,E Alder St & Erie Ave
27270,Seattle,W,SEA,YES,27,0,NA,NA,E Alder St & 35th Ave
29100,Seattle,W,SEA,YES,31 32,0,NA,NA,NE 45th St & 42nd Ave NE
29110,Seattle,W,SEA,YES,31 32,0,NA,NA,NE 45th St & 40th Ave NE
29130,Seattle,W,SEA,YES,31 32 45 67,1,NA,NA,NE 45th St & 36th Ave NE
790,Seattle,S,SEA,YES,257N 311N 545E,0,NA,NA,5th Ave & Seneca St
800,Seattle,S,SEA,YES,630,1,NA,NA,5th Ave & Spring St
30360,Seattle,N,SEA,YES,36,1,NA,NA,Beacon Ave S & S Holly St
30380,Seattle,N,SEA,YES,36,1,NA,NA,Beacon Ave S & S Graham St
30390,Seattle,N,SEA,YES,36,1,NA,NA,Beacon Ave S & S Spencer St
30410,Seattle,N,SEA,YES,36,1,NA,NA,Beacon Ave S & S Orcas St
30430,Seattle,N,SEA,YES,36,1,NA,NA,Beacon Ave S & S Brandon St
30440,Seattle,N,SEA,YES,36,1,NA,NA,Beacon Ave S & S Dawson St
3030,Seattle,W,SEA,YES,2,1,NA,NA,E Union St & 14th Ave
3033,Seattle,W,SEA,YES,2,0,NA,NA,Seneca St & Harvard Ave
3034,Seattle,W,SEA,YES,2,1,NA,NA,Seneca St & Summit Ave
3035,Seattle,W,SEA,YES,2,1,NA,NA,Seneca St & Boren Ave
3036,Seattle,W,SEA,YES,2 630,2,NA,NA,Seneca St & Terry Ave
31660,Seattle,S,SEA,YES,60,0,NA,NA,16th Ave S & East Marginal Way S
3151,Seattle,E,SEA,YES,2,1,NA,NA,Seneca St & 9th Ave
32601,Seattle,N,SEA,YES,773,0,NA,NA,Harbor Ave SW & 30th Ave SW
32610,Seattle,N,SEA,YES,773,0,NA,NA,Harbor Ave SW & SW Harbor Ln
35334,Seattle,E,SEA,YES,322 61,0,NA,NA,NE Northgate Way & 19th Ave NE
35820,Seattle,S,SEA,YES,48,1,NA,NA,15th Ave NE & NE 45th St
37359,Unknown,E,SEA,YES,45 62,0,NA,NA,NE 65th St & 14th Ave NE
37381,Unknown,E,SEA,YES,62,0,NA,NA,NE 65th St & 20th Ave NE
37400,Seattle,E,SEA,YES,62 988EN,0,NA,NA,NE 65th St & 23rd Ave NE
37410,Seattle,E,SEA,YES,62,0,NA,NA,NE 65th St & 25th Ave NE
37420,Seattle,E,SEA,YES,62,0,NA,NA,NE 65th St & 27th Ave NE
26000,Seattle,N,SEA,YES,65,0,NA,NA,35th Ave NE & NE 93rd St
26020,Seattle,N,SEA,YES,65,0,NA,NA,35th Ave NE & NE 97th St
26030,Seattle,N,SEA,YES,65,0,NA,NA,35th Ave NE & NE 100th St
26050,Seattle,N,SEA,YES,65,0,NA,NA,35th Ave NE & NE 105th St
26060,Seattle,N,SEA,YES,65,1,NA,NA,35th Ave NE & NE 110th St
27690,Seattle,S,SEA,YES,27,0,NA,NA,Lakeside Ave S & E Yesler Way
27700,Seattle,S,SEA,YES,27,0,NA,NA,Lakeside Ave S & S Leschi Pl
27720,Seattle,S,SEA,YES,27,0,NA,NA,Lakeside Ave S & S Lane St
27730,Seattle,S,SEA,YES,27,0,NA,NA,Lakeside Ave S & S Charles St
9220,Seattle,S,SEA,YES,70,1,NA,NA,Eastlake Ave E & E Newton St
9240,Seattle,S,SEA,YES,70,0,NA,NA,Eastlake Ave E & E Garfield St
10566,Seattle,N,SEA,YES,75,0,NA,NA,Sand Point Way NE & NE 52nd St
10568,Seattle,E,SEA,YES,75,0,NA,NA,Sand Point Way NE & Princeton Ave NE
10580,Seattle,N,SEA,YES,75 79,0,NA,NA,Sand Point Way NE & NE Windermere Rd
10600,Seattle,N,SEA,YES,75 79,0,NA,NA,Sand Point Way NE & NE 61st St
37430,Seattle,E,SEA,YES,62,0,NA,NA,NE 65th St & 29th Ave NE
37440,Seattle,E,SEA,YES,62,0,NA,NA,NE 65th St & 31st Ave NE
10620,Seattle,N,SEA,YES,62 75,0,NA,NA,Sand Point Way NE & NE 65th St
10630,Seattle,N,SEA,YES,62 75,1,NA,NA,Sand Point Way NE & NE 70th St
12050,Seattle,S,SEA,YES,14,0,NA,NA,31st Ave S & S King St
12070,Seattle,S,SEA,YES,14,0,NA,NA,31st Ave S & S Dearborn St
12080,Seattle,S,SEA,YES,14,0,NA,NA,31st Ave S & S Norman St
12090,Seattle,S,SEA,YES,14,0,NA,NA,31st Ave S & S Irving St
12110,Seattle,S,SEA,YES,14,0,NA,NA,31st Ave S & S Massachusetts St
12130,Seattle,S,SEA,YES,14,0,NA,NA,31st Ave S & S Plum St
1070,Seattle,E,SEA,YES,257 311 545E,0,NA,NA,Olive Way & Terry Ave
12140,Seattle,S,SEA,YES,14,0,NA,NA,31st Ave S & S Walker St
12160,Seattle,S,SEA,YES,14,0,NA,NA,31st Ave S & S Lander St
12170,Seattle,E,SEA,YES,14,0,NA,NA,S McClellan St & 31st Ave S
13390,Seattle,S,SEA,YES,3,1,NA,NA,Bellevue Ave E & Bellevue Pl E
13410,Seattle,S,SEA,YES,3,1,NA,NA,Bellevue Ave E & E Republican St
13420,Seattle,S,SEA,YES,3,0,NA,NA,Bellevue Ave E & E Thomas St
13430,Seattle,S,SEA,YES,3,0,NA,NA,Bellevue Ave E & E Denny Way
13441,Seattle,S,SEA,YES,11 3,0,NA,NA,Bellevue Ave & E Olive Way
1907,King County,W,SEA,YES,973,0,NA,NA,Passenger Ferry Walk & Water Taxi Route
2020,Seattle,S,SEA,YES,1,0,NA,NA,10th Ave W & W Bothwell St
2030,Seattle,S,SEA,YES,1,0,NA,NA,10th Ave W & W Halladay St
3460,Seattle,N,SEA,YES,36,0,NA,NA,Beacon Ave S & 17th Ave S
41819,Seattle,N,SEA,YES,107 60,0,NA,NA,15th Ave S & S Angeline St
41850,Seattle,N,SEA,YES,107 60,1,NA,NA,15th Ave S & S Spokane St
41870,Seattle,N,SEA,YES,107 60,0,NA,NA,15th Ave S & S Hanford St
41880,Seattle,N,SEA,YES,107 60,0,NA,NA,15th Ave S & S Stevens St
41904,Seattle,N,SEA,YES,43 96N 9E,0,NA,NA,Broadway & E Terrace St
13480,Seattle,N,SEA,YES,3,0,NA,NA,Summit Ave E & E Olive Way
13500,Seattle,N,SEA,YES,3,0,NA,NA,Summit Ave E & E Harrison St
15500,Seattle,N,SEA,YES,56 57,0,NA,NA,SW Admiral Way & SW Olga St
15521,Seattle,W,SEA,YES,56 57,0,NA,NA,SW Admiral Way & 38th Ave SW
15532,Seattle,W,SEA,YES,56 57,0,NA,NA,SW Admiral Way & 41st Ave SW
15570,Seattle,W,SEA,YES,50 56 57 775,0,NA,NA,SW Admiral Way & SW Waite St
15580,Seattle,W,SEA,YES,50 56 57 775,0,NA,NA,SW Admiral Way & SW Lander St
5900,Seattle,S,SEA,YES,5,0,NA,NA,Phinney Ave N & N 61st St
5910,Seattle,S,SEA,YES,5,0,NA,NA,Phinney Ave N & N 59th St
41908,Seattle,N,SEA,YES,43 96N 9E,0,NA,NA,Broadway & E Marion St
43792,Seattle,N,SEA,YES,8,0,NA,NA,Martin L King Jr Way E & E John St
15588,Seattle,W,SEA,YES,50 56 775,0,NA,NA,SW Admiral Way & 51st Ave SW
17410,Seattle,E,SEA,YES,44 62,1,NA,NA,N 45th St & Wallingford Ave N
17420,Seattle,N,SEA,YES,62,0,NA,NA,Meridian Ave N & N 45th St
17440,Seattle,N,SEA,YES,62,0,NA,NA,Meridian Ave N & N 48th St
17460,Seattle,N,SEA,YES,62,0,NA,NA,Meridian Ave N & N 53rd St
17470,Seattle,E,SEA,YES,62,0,NA,NA,N 56th St & Keystone Pl N
17490,Seattle,N,SEA,YES,62,0,NA,NA,Kirkwood Pl N & N 59th St
5930,Seattle,S,SEA,YES,5,1,NA,NA,Phinney Ave N & N 55th St
5940,Seattle,S,SEA,YES,5,1,NA,NA,Phinney Ave N & N 54th St
5960,Seattle,S,SEA,YES,5,0,NA,NA,Phinney Ave N & N 50th St
6000,Seattle,E,SEA,YES,5,1,NA,NA,N 43rd St & Phinney Ave N
6020,Seattle,E,SEA,YES,5,1,NA,NA,N 43rd St & Fremont Ave N
7690,Seattle,N,SEA,YES,E,0,NA,NA,Aurora Ave N & N 76th St
7710,Seattle,N,SEA,YES,E,0,NA,NA,Aurora Ave N & N 80th St
18770,Seattle,W,SEA,YES,17E,0,NA,NA,NW 54th St & NW Market St
18790,Seattle,N,SEA,YES,17E,0,NA,NA,32nd Ave NW & NW Market St
18800,Seattle,N,SEA,YES,17E,0,NA,NA,32nd Ave NW & NW 56th St
18810,Seattle,N,SEA,YES,17E,0,NA,NA,32nd Ave NW & NW 58th St
18820,Seattle,N,SEA,YES,17E,0,NA,NA,32nd Ave NW & NW 60th St
7750,Seattle,N,SEA,YES,E,1,NA,NA,Aurora Ave N & N 91st St
7770,Seattle,N,SEA,YES,E,0,NA,NA,Aurora Ave N & N 95th St
7790,Seattle,N,SEA,YES,E,1,NA,NA,Aurora Ave N & N 100th St
20829,Seattle,W,SEA,YES,13 2 24 33 8,0,NA,NA,Denny Way & 2nd Ave N
20880,Seattle,N,SEA,YES,24 33,0,NA,NA,Thorndyke Ave W & W Hayes St
10650,Seattle,N,SEA,YES,62 75,0,NA,NA,Sand Point Way NE & NE 77th St
10654,Federal Government,E,SEA,YES,62,0,NA,NA,NE NOAA Dr & NOAA AcRd
22252,Seattle,S,SEA,YES,128 60,1,NA,NA,Delridge Way SW & SW Henderson St
22253,Seattle,S,SEA,YES,128 60,0,NA,NA,Delridge Way SW & SW Barton St
22256,Seattle,W,SEA,YES,113 H,1,NA,NA,SW Roxbury St & 20th Ave SW
22259,Seattle,W,SEA,YES,H,1,NA,NA,SW Roxbury St & 26th Ave SW
10657,Federal Government,W,SEA,YES,62,0,NA,NA,NE NOAA Dr & NOAA AcRd
10680,Seattle,N,SEA,YES,75,0,NA,NA,Sand Point Way NE & Inverness Dr NE
10700,Seattle,N,SEA,YES,75,0,NA,NA,Sand Point Way NE & Matthews Pl NE
12190,Seattle,E,SEA,YES,14,0,NA,NA,S McClellan St & S Mount Baker Blvd
12200,Seattle,S,SEA,YES,14,0,NA,NA,Mount Rainier Dr S & S Ridgeway Pl
12220,Seattle,S,SEA,YES,11,0,NA,NA,42nd Ave E & E Lynn St
12230,Seattle,S,SEA,YES,11,0,NA,NA,42nd Ave E & E Newton St
12240,Seattle,S,SEA,YES,11,0,NA,NA,42nd Ave E & E Madison St
23872,Seattle,W,SEA,YES,75,1,NA,NA,NE 125th St & Roosevelt Way NE
23890,Seattle,S,SEA,YES,372E,1,NA,NA,25th Ave NE & NE 80th St
23905,Seattle,S,SEA,YES,372E,1,NA,NA,25th Ave NE & NE 65th St
23910,Seattle,S,SEA,YES,372E,0,NA,NA,25th Ave NE & NE 60th St
23915,Seattle,S,SEA,YES,372E,0,NA,NA,25th Ave NE & NE 55th St
25840,Seattle,N,SEA,YES,65,0,NA,NA,35th Ave NE & NE 55th St
25860,Seattle,N,SEA,YES,65,0,NA,NA,35th Ave NE & NE 60th St
12250,Seattle,W,SEA,YES,11,1,NA,NA,E Madison St & 41st Ave E
12260,Seattle,W,SEA,YES,11,0,NA,NA,E Madison St & E Garfield St
12270,Seattle,W,SEA,YES,11,1,NA,NA,E Madison St & 38th Ave E
12280,Seattle,W,SEA,YES,11,0,NA,NA,E Madison St & 36th Ave E
12290,Seattle,W,SEA,YES,11,0,NA,NA,E Madison St & 34th Ave E
13510,Seattle,N,SEA,YES,3,0,NA,NA,Summit Ave E & E Mercer St
25890,Seattle,N,SEA,YES,65,0,NA,NA,35th Ave NE & NE 68th St
25900,Seattle,N,SEA,YES,65,1,NA,NA,35th Ave NE & NE 70th St
25920,Seattle,N,SEA,YES,65,1,NA,NA,35th Ave NE & NE 75th St
25940,Seattle,N,SEA,YES,65,0,NA,NA,35th Ave NE & NE 80th St
27560,Seattle,E,SEA,YES,27,0,NA,NA,E Yesler Way & 22nd Ave S
27590,Seattle,E,SEA,YES,27 8,0,NA,NA,E Yesler Way & 27th Ave S
27600,Seattle,E,SEA,YES,27,0,NA,NA,E Yesler Way & 28th Ave S
13585,Seattle,S,SEA,YES,40,1,NA,NA,15th Ave NW & Holman Rd NW
15610,Seattle,W,SEA,YES,50 56 775,0,NA,NA,SW Admiral Way & SW Lander St
15630,Seattle,W,SEA,YES,50 56 775,0,NA,NA,SW Admiral Way & 57th Ave SW
15650,Seattle,W,SEA,YES,50 56 775,0,NA,NA,SW Admiral Way & 61st Ave SW
15651,Seattle,N,SEA,YES,50 56 775,0,NA,NA,63rd Ave SW & SW Admiral Way
15652,Seattle,N,SEA,YES,50 56 775,0,NA,NA,63rd Ave SW & Alki Ave SW
27610,Seattle,E,SEA,YES,27,0,NA,NA,E Yesler Way & 30th Ave S
27620,Seattle,E,SEA,YES,27,0,NA,NA,E Yesler Way & 32nd Ave S
27630,Seattle,E,SEA,YES,27,0,NA,NA,Lake Dell Ave & 32nd Ave S
27640,Seattle,N,SEA,YES,27,0,NA,NA,Lake Dell Ave & E Spruce St
27660,Seattle,E,SEA,YES,27,0,NA,NA,E Alder St & 35th Ave
27670,Seattle,E,SEA,YES,27,0,NA,NA,E Alder St & Erie Ave
29232,Seattle,E,SEA,YES,44 62,1,NA,NA,N 45th St & Woodlawn Ave N
29234,Seattle,E,SEA,YES,44,1,NA,NA,N 45th St & Corliss Ave N
17510,Seattle,N,SEA,YES,62,0,NA,NA,Woodlawn Ave N & N 63rd St
17530,Seattle,E,SEA,YES,62,1,NA,NA,Woodlawn Ave NE & Sunnyside Ave N
29236,Seattle,E,SEA,YES,44,1,NA,NA,NE 45th St & Thackeray Pl NE
30670,Seattle,S,SEA,YES,131 132,0,NA,NA,4th Ave S & Edgar Martinez Dr S
18830,Seattle,N,SEA,YES,17E,0,NA,NA,32nd Ave NW & NW 62nd St
18840,Seattle,N,SEA,YES,17E,0,NA,NA,32nd Ave NW & NW 64th St
18850,Seattle,N,SEA,YES,17E,0,NA,NA,32nd Ave NW & NW 66th St
18860,Seattle,N,SEA,YES,17E,0,NA,NA,32nd Ave NW & NW 69th St
18870,Seattle,N,SEA,YES,17E,0,NA,NA,32nd Ave NW & NW 71st St
18880,Seattle,N,SEA,YES,17E,0,NA,NA,32nd Ave NW & NW 73rd St
18890,Seattle,N,SEA,YES,17E,0,NA,NA,32nd Ave NW & NW 75th St
18900,Seattle,N,SEA,YES,17E,0,NA,NA,32nd Ave NW & NW 77th St
18910,Seattle,N,SEA,YES,17E,0,NA,NA,32nd Ave NW & NW 80th St
18920,Seattle,N,SEA,YES,17E,0,NA,NA,32nd Ave NW & Loyal Way NW
30700,Seattle,S,SEA,YES,131 132,0,NA,NA,4th Ave S & S Walker St
30720,Seattle,S,SEA,YES,131 132,1,NA,NA,4th Ave S & S Lander St
30748,Seattle,S,SEA,YES,131 132,0,NA,NA,4th Ave S & S Horton St
31850,Seattle,N,SEA,YES,128 50,0,NA,NA,California Ave SW & SW Andover St
31871,Seattle,N,SEA,YES,128 50,0,NA,NA,California Ave SW & SW Spokane St
31890,Seattle,N,SEA,YES,128 50,0,NA,NA,California Ave SW & SW Hanford St
18940,Seattle,N,SEA,YES,17E,0,NA,NA,Golden Gardens Dr NW & NW 87th St
20940,Seattle,W,SEA,YES,24,0,NA,NA,Viewmont Way W & 35th Ave W
20950,Seattle,W,SEA,YES,24,0,NA,NA,Viewmont Way W & Edgemont Pl W
20960,Seattle,N,SEA,YES,24,0,NA,NA,West Viewmont Way W & Constance Dr W
20970,Seattle,N,SEA,YES,24,0,NA,NA,West Viewmont Way W & Montavista Pl W
20980,Seattle,N,SEA,YES,24,0,NA,NA,West Viewmont Way W & W Parkmont Pl
20990,Seattle,N,SEA,YES,24,0,NA,NA,West Viewmont Way W & Westmont Way W
21000,Seattle,N,SEA,YES,24,0,NA,NA,West Viewmont Way W & W Raye St
21010,Seattle,N,SEA,YES,24,0,NA,NA,West Viewmont Way W & W Armour St
21020,Seattle,N,SEA,YES,24,0,NA,NA,West Viewmont Way W & W Barrett St
31900,Seattle,N,SEA,YES,128 50,0,NA,NA,California Ave SW & SW Stevens St
31940,Seattle,S,SEA,YES,128 50,0,NA,NA,California Ave SW & SW Stevens St
22280,Seattle,W,SEA,YES,21E 22,0,NA,NA,SW 100th St & 35th Ave SW
22290,Seattle,W,SEA,YES,21E 22,0,NA,NA,SW 100th St & 37th Ave SW
22300,Seattle,W,SEA,YES,21E 22,0,NA,NA,SW 100th St & 39th Ave SW
22320,Seattle,W,SEA,YES,21E 22,0,NA,NA,SW 100th St & 41st Ave SW
22330,Seattle,W,SEA,YES,21E 22,0,NA,NA,SW 100th St & 42nd Ave SW
22340,Seattle,S,SEA,YES,21E 22,0,NA,NA,44th Ave SW & SW 100th St
22360,Seattle,S,SEA,YES,21E 22,0,NA,NA,44th Ave SW & Marine View Dr SW
23920,Seattle,S,SEA,YES,372E 988EN,1,NA,NA,25th Ave NE & NE Blakeley St
23925,Seattle,S,SEA,YES,372E,1,NA,NA,25th Ave NE & NE 47th St
35770,Seattle,S,SEA,YES,45,0,NA,NA,15th Ave NE & NE Ravenna Blvd
35800,Seattle,S,SEA,YES,48,0,NA,NA,15th Ave NE & NE 50th St
24270,Seattle,N,SEA,YES,24,1,NA,NA,34th Ave W & W Raye St
24280,Seattle,N,SEA,YES,24,0,NA,NA,34th Ave W & W Armour St
24290,Seattle,N,SEA,YES,24,0,NA,NA,34th Ave W & W Barrett St
24300,Seattle,N,SEA,YES,24,0,NA,NA,34th Ave W & W Dravus St
24310,Seattle,N,SEA,YES,24,0,NA,NA,34th Ave W & W Bertona St
24320,Seattle,N,SEA,YES,24,0,NA,NA,34th Ave W & W Ruffner St
25960,Seattle,N,SEA,YES,65,0,NA,NA,35th Ave NE & NE 85th St
25980,Seattle,N,SEA,YES,65,0,NA,NA,35th Ave NE & NE 89th St
15480,Seattle,N,SEA,YES,56 57,0,NA,NA,SW Admiral Way & SW City View St
17260,Seattle,S,SEA,YES,62,1,NA,NA,Meridian Ave N & N 54th St
17280,Seattle,S,SEA,YES,62,0,NA,NA,Meridian Ave N & N 50th St
17300,Seattle,S,SEA,YES,62,0,NA,NA,Meridian Ave N & N 46th St
17310,Seattle,W,SEA,YES,44 62,1,NA,NA,N 45th St & Wallingford Ave N
20680,Seattle,S,SEA,YES,31,0,NA,NA,Condon Way W & W Crockett St
20710,Seattle,S,SEA,YES,24 33,0,NA,NA,28th Ave W & W Eaton St
20720,Seattle,E,SEA,YES,24 33,0,NA,NA,W Galer St & Thorndyke Ave W
20730,Seattle,E,SEA,YES,24 33,0,NA,NA,Magnolia Brg & Unnamed
22196,Unknown,N,SEA,UNK,H,0,NA,NA,Delridge Way SW & SW Thistle St
22200,Seattle,S,SEA,YES,125 128,0,NA,NA,16th Ave SW & SW Kenyon St
22210,Seattle,S,SEA,YES,125 128,0,NA,NA,16th Ave SW & SW Elmgrove St
22220,Seattle,S,SEA,YES,125 128,0,NA,NA,16th Ave SW & SW Thistle St
22230,Seattle,S,SEA,YES,125 128,0,NA,NA,16th Ave SW & SW Cloverdale St
22244,Seattle,S,SEA,YES,125 128,0,NA,NA,16th Ave SW & SW Henderson St
23770,Seattle,N,SEA,YES,322 348 61 67 75,0,NA,NA,5th Ave NE & NE 106th St
23785,Seattle,N,SEA,YES,75,1,NA,NA,5th Ave NE & NE 112th St
23800,Seattle,N,SEA,YES,75,0,NA,NA,5th Ave NE & NE 115th St
23820,Seattle,N,SEA,YES,75,0,NA,NA,5th Ave NE & NE 120th St
25790,Seattle,N,SEA,YES,65 75,1,NA,NA,Montlake Blvd NE & NE 45th St
25791,Seattle,N,SEA,YES,372E 988EN,1,NA,NA,25th Ave NE & NE 47th St
5820,Seattle,S,SEA,YES,5,0,NA,NA,Greenwood Ave N & N 78th St
5830,Seattle,S,SEA,YES,5,0,NA,NA,Greenwood Ave N & N 76th St
5840,Seattle,S,SEA,YES,5,1,NA,NA,Greenwood Ave N & N 74th St
5860,Seattle,S,SEA,YES,5,0,NA,NA,Greenwood Ave N & N 70th St
5875,Seattle,S,SEA,YES,5,0,NA,NA,Greenwood Ave N & N 67th St
25792,Seattle,N,SEA,YES,372E,1,NA,NA,25th Ave NE & NE Blakeley St
25793,Seattle,N,SEA,YES,372E,0,NA,NA,25th Ave NE & NE 55th St
25794,Seattle,N,SEA,YES,372E,0,NA,NA,25th Ave NE & NE 60th St
25795,Seattle,N,SEA,YES,372E 988EN,1,NA,NA,25th Ave NE & NE 65th St
27395,Seattle,W,SEA,YES,27,0,NA,NA,E Yesler Way & 14th Ave S
27420,Seattle,W,SEA,YES,27 60 96N,0,NA,NA,E Yesler Way & Broadway
27430,Seattle,W,SEA,YES,27,1,NA,NA,Yesler Way & 8th Ave
27480,Seattle,E,SEA,YES,27,1,NA,NA,Yesler Way & 8th Ave S
27500,Seattle,E,SEA,YES,27 60 96N,0,NA,NA,E Yesler Way & Broadway
27510,Seattle,E,SEA,YES,27,1,NA,NA,E Yesler Way & 12th Ave S
27520,Seattle,E,SEA,YES,27,0,NA,NA,E Yesler Way & 14th Ave S
27530,Seattle,E,SEA,YES,27,0,NA,NA,E Yesler Way & 16th Ave S
27550,Seattle,E,SEA,YES,27,0,NA,NA,E Yesler Way & 20th Ave S
29215,Seattle,E,SEA,YES,44,1,NA,NA,NW Market St & 15th Ave NW
29217,Seattle,E,SEA,YES,44,1,NA,NA,NW Market St & 11th Ave NW
29219,Seattle,E,SEA,YES,44,1,NA,NA,NW Market St & 8th Ave NW
940,Seattle,W,SEA,YES,101 102 150 218 257N 311N 545E 70N,0,NA,NA,Stewart St & 9th Ave
950,Seattle,W,SEA,YES,101 102 150 218 257N 311N 545E 70N,1,NA,NA,Stewart St & 7th Ave
970,Seattle,W,SEA,YES,101 102 150 218,0,NA,NA,Stewart St & 4th Ave
992,Seattle,E,SEA,YES,101 102 111N 150 177N,1,NA,NA,Howell St & 9th Ave
996,Unknown,N,SEA,UNK,257 311,2,NA,NA,5th Ave & Marion St
900,Seattle,E,SEA,YES,303 322 70,1,NA,NA,Virginia St & 9th Ave
29220,Seattle,E,SEA,YES,44,0,NA,NA,NW Market St & 6th Ave NW
29222,Seattle,E,SEA,YES,44,0,NA,NA,NW Market St & NW 50th St
29223,Seattle,E,SEA,YES,44,0,NA,NA,NW Market St & NW 48th St
30550,Seattle,N,SEA,YES,131 132,0,NA,NA,4th Ave S & S Hanford St
30560,Seattle,N,SEA,YES,131 132,0,NA,NA,4th Ave S & S Forest St
30570,Seattle,N,SEA,YES,131 132,1,NA,NA,4th Ave S & S Lander St
7630,Seattle,N,SEA,YES,E,0,NA,NA,Woodland Pl N & Linden Ave N
7670,Seattle,N,SEA,YES,E,0,NA,NA,Linden Ave N & N 72nd St
9150,Seattle,S,SEA,YES,70,0,NA,NA,Eastlake Ave E & E Allison St
9170,Seattle,S,SEA,YES,70,0,NA,NA,Eastlake Ave E & E Hamlin St
9190,Seattle,S,SEA,YES,70,0,NA,NA,Eastlake Ave E & E Louisa St
9200,Seattle,S,SEA,YES,70,0,NA,NA,Eastlake Ave E & E Lynn St
30590,Seattle,N,SEA,YES,131 132,0,NA,NA,4th Ave S & S Walker St
30600,Seattle,N,SEA,YES,131 132,1,NA,NA,4th Ave S & S Holgate St
31765,Seattle,W,SEA,YES,C,1,NA,NA,SW Barton St & 35th Ave SW
31791,Seattle,S,SEA,YES,C,0,NA,NA,California Ave SW & SW Director St
3220,Seattle,E,SEA,YES,2,0,NA,NA,E Union St & 26th Ave
3230,Seattle,E,SEA,YES,2,1,NA,NA,E Union St & Martin L King Jr Way
3240,Seattle,E,SEA,YES,2,0,NA,NA,E Union St & 30th Ave
3271,Seattle,N,SEA,YES,2,0,NA,NA,34th Ave & E Olive St
3280,Seattle,N,SEA,YES,2,0,NA,NA,34th Ave & E Howell St
3293,Seattle,N,SEA,YES,2,0,NA,NA,34th Ave & E Pike St
3300,Seattle,E,SEA,YES,2,0,NA,NA,Madrona Dr & 38th Ave
31818,Seattle,E,SEA,YES,128 22 50,0,NA,NA,SW Oregon St & California Ave SW
31830,Seattle,N,SEA,YES,128 50,0,NA,NA,California Ave SW & SW Genesee St
1889,State Dept. of Transportation,S,SEA,YES,975N,0,NA,NA,Passenger Ferry Walk & Vashon Ferry Route
3310,Seattle,S,SEA,YES,2,0,NA,NA,Madrona Dr & E Olive St
3320,Seattle,S,SEA,YES,2,0,NA,NA,Madrona Dr & E Pine St
5690,Seattle,S,SEA,YES,5,1,NA,NA,Greenwood Ave N & N 110th St
5730,Seattle,S,SEA,YES,5,1,NA,NA,Greenwood Ave N & N 100th St
5740,Seattle,S,SEA,YES,5,1,NA,NA,Greenwood Ave N & N 97th St
5765,Seattle,S,SEA,YES,5,1,NA,NA,Greenwood Ave N & N 92nd St
5770,Seattle,S,SEA,YES,5,1,NA,NA,Greenwood Ave N & N 90th St
5771,Seattle,S,SEA,YES,5,1,NA,NA,Greenwood Ave N & N 87th St
35660,Seattle,E,SEA,YES,45 61,1,NA,NA,NW 85th St & 3rd Ave NW
35670,Seattle,E,SEA,YES,45 61,1,NA,NA,N 85th St & 1st Ave NW
35691,Unknown,E,SEA,UNK,45,1,NA,NA,East Green Lake Dr N & Meridian Ave N
7498,Seattle,N,SEA,YES,62,1,NA,NA,Stone Way N & N 38th St
7500,Seattle,N,SEA,YES,62,0,NA,NA,Stone Way N & N 40th St
7520,Seattle,N,SEA,YES,62,0,NA,NA,Stone Way N & N 42nd St
7530,Seattle,N,SEA,YES,62,1,NA,NA,Stone Way N & N Allen Pl
9138,Seattle,W,SEA,YES,49 70,1,NA,NA,NE Campus Pkwy & 12th Ave NE
35721,Unknown,E,SEA,UNK,45,1,NA,NA,East Green Lake Dr N & 4th Ave NE
37160,Seattle,N,SEA,YES,128,0,NA,NA,California Ave SW & SW College St
37170,Seattle,N,SEA,YES,128,0,NA,NA,California Ave SW & SW Hill St
37180,Seattle,N,SEA,YES,128,0,NA,NA,California Ave SW & Palm Ave SW
37200,Seattle,W,SEA,YES,128,0,NA,NA,SW Seattle St & California Ave SW
37220,Seattle,W,SEA,YES,128 50,0,NA,NA,SW Oregon St & 44th Ave SW
37350,Seattle,N,SEA,YES,45,1,NA,NA,University Way NE & NE 50th St
9140,Seattle,S,SEA,YES,49 70,1,NA,NA,Univ Brdg Ramp & NE 40th St
9142,Seattle,S,SEA,YES,75 79,1,NA,NA,University Way NE & NE 41st St
10510,Seattle,E,SEA,YES,65 79,0,NA,NA,NE 55th St & 36th Ave NE
10515,Seattle,N,SEA,YES,65,0,NA,NA,40th Ave NE & NE 50th St
10525,Seattle,E,SEA,YES,65 79,1,NA,NA,NE 55th St & 40th Ave NE
37352,Seattle,N,SEA,YES,45,1,NA,NA,University Way NE & NE 55th St
37353,Seattle,N,SEA,YES,45,1,NA,NA,University Way NE & NE Ravenna Blvd
38890,Seattle,S,SEA,YES,348,0,NA,NA,15th Ave NE & NE 130th St
38900,Seattle,S,SEA,YES,348,1,NA,NA,15th Ave NE & NE 127th St
38920,Seattle,S,SEA,YES,348,1,NA,NA,15th Ave NE & NE 123rd St
38930,Seattle,S,SEA,YES,348,1,NA,NA,15th Ave NE & NE 120th St
38962,Seattle,S,SEA,YES,348,0,NA,NA,Pinehurst Way NE & NE 115th St
3330,Seattle,S,SEA,YES,2,0,NA,NA,Madrona Dr & Newport Way
3400,Seattle,N,SEA,YES,36,2,NA,NA,Beacon Ave S & VA Hospital AcRd
3410,Seattle,N,SEA,YES,36,0,NA,NA,Beacon Ave S & VA Hospital AcRd
3420,Seattle,N,SEA,YES,36,0,NA,NA,Beacon Ave S & VA Hospital AcRd
3450,Seattle,N,SEA,YES,36,1,NA,NA,Beacon Ave S & S Hanford St
5810,Seattle,S,SEA,YES,5,1,NA,NA,Greenwood Ave N & N 80th St
10550,Seattle,E,SEA,YES,79,0,NA,NA,NE 55th St & 45th Ave NE
10560,Seattle,E,SEA,YES,79,0,NA,NA,NE 55th St & Princeton Ave NE
10561,Seattle,N,SEA,YES,75,0,NA,NA,Sand Point Way NE & 38th Ave NE
10564,Seattle,N,SEA,YES,75,0,NA,NA,Sand Point Way NE & NE 50th St
11940,Seattle,W,SEA,YES,14,0,NA,NA,S Jackson St & 18th Ave S
11960,Seattle,E,SEA,YES,14,1,NA,NA,S Jackson St & Rainier Ave S
11980,Seattle,E,SEA,YES,14,0,NA,NA,S Jackson St & 17th Ave S
11990,Seattle,E,SEA,YES,14,0,NA,NA,S Jackson St & 20th Ave S
12030,Seattle,E,SEA,YES,14,0,NA,NA,S Jackson St & 28th Ave S
12040,Seattle,E,SEA,YES,14,0,NA,NA,S Jackson St & 30th Ave S
13310,Seattle,N,SEA,YES,12,0,NA,NA,19th Ave E & E Denny Way
13320,Seattle,N,SEA,YES,12,0,NA,NA,19th Ave E & E John St
13330,Seattle,N,SEA,YES,12,0,NA,NA,19th Ave E & E Thomas St
13340,Seattle,N,SEA,YES,12,0,NA,NA,19th Ave E & E Harrison St
13350,Seattle,N,SEA,YES,12,0,NA,NA,19th Ave E & E Republican St
13360,Seattle,N,SEA,YES,12,0,NA,NA,19th Ave E & E Roy St
41750,Seattle,E,SEA,YES,107 60,0,NA,NA,S Albro Pl & Stanley Ave S
41760,Seattle,N,SEA,YES,107 60,0,NA,NA,Swift Ave S & 16th Ave S
41780,Seattle,N,SEA,YES,107 60,1,NA,NA,15th Ave S & S Lucile St
41800,Seattle,N,SEA,YES,107 60,0,NA,NA,15th Ave S & S Dawson St
41805,Seattle,N,SEA,YES,107 60,1,NA,NA,15th Ave S & S Shelton St
13370,Seattle,N,SEA,YES,12,0,NA,NA,19th Ave E & E Aloha St
13380,Seattle,N,SEA,YES,12,0,NA,NA,19th Ave E & E Prospect St
13381,Seattle,N,SEA,YES,12,0,NA,NA,19th Ave E & E Highland Dr
15451,Seattle,W,SEA,YES,21,1,NA,NA,SW Spokane St & Chelan Ave SW
43770,Seattle,N,SEA,YES,8,0,NA,NA,Martin L King Jr Way S & S Dearborn St
43778,Seattle,N,SEA,YES,8,0,NA,NA,Martin L King Jr Way & E Alder St
43782,Seattle,N,SEA,YES,8,0,NA,NA,Martin L King Jr Way & E Cherry St
43784,Seattle,N,SEA,YES,8,0,NA,NA,Martin L King Jr Way & E Marion St
43788,Seattle,N,SEA,YES,8 988EN,0,NA,NA,Martin L King Jr Way & E Olive St
37749,Seattle,E,SEA,YES,79,0,NA,NA,NE 75th St & 40th Ave NE
37750,Seattle,E,SEA,YES,79,0,NA,NA,NE 75th St & 42nd Ave NE
37760,Seattle,E,SEA,YES,79,0,NA,NA,NE 75th St & 44th Ave NE
39350,Seattle,E,SEA,YES,65,0,NA,NA,NE 145th St & 20th Ave NE
39420,Unknown,W,SEA,UNK,22,0,NA,NA,SW Thistle St & Delridge Way SW
13770,Seattle,S,SEA,YES,D,1,NA,NA,15th Ave W & W Emerson St
13775,Seattle,W,SEA,YES,31,0,NA,NA,W Emerson Pl & 21st Ave W
39428,Seattle,W,SEA,YES,22,0,NA,NA,SW Thistle St & 25th Ave SW
13800,Seattle,S,SEA,YES,32 D,1,NA,NA,15th Ave W & W Dravus St
13810,Seattle,S,SEA,YES,32 D,1,NA,NA,15th Ave W & W Armour St
42050,Seattle,S,SEA,YES,107 60,0,NA,NA,15th Ave S & S Hanford St
42070,Seattle,S,SEA,YES,107 60,0,NA,NA,15th Ave S & S Spokane St
42091,Seattle,S,SEA,YES,107 60,0,NA,NA,15th Ave S & S Angeline St
42105,Seattle,S,SEA,YES,107 60,0,NA,NA,15th Ave S & S Shelton St
42120,Seattle,S,SEA,YES,107 60,0,NA,NA,15th Ave S & S Dawson St
42130,Seattle,S,SEA,YES,107 60,0,NA,NA,15th Ave S & S Lucile St
42140,Seattle,S,SEA,YES,107 60,0,NA,NA,15th Ave S & S Orcas St
17730,Seattle,N,SEA,YES,345 365 40,0,NA,NA,College Way N & N 103rd St
17740,Seattle,N,SEA,YES,345 365 40,1,NA,NA,Meridian Ave N & N 105th St
17755,Seattle,W,SEA,YES,40,1,NA,NA,N Northgate Way & Meridian Ave N
17760,Seattle,N,SEA,YES,345 365,1,NA,NA,Meridian Ave N & N Northgate Way
17780,Seattle,N,SEA,YES,345 365,1,NA,NA,Meridian Ave N & N 115th St
19210,Seattle,E,SEA,YES,45,0,NA,NA,NW 85th St & Earl Ave NW
21140,Seattle,N,SEA,YES,113 60,0,NA,NA,Olson Pl SW & 3rd Ave SW
21150,Seattle,S,SEA,YES,113 60,0,NA,NA,Olson Pl SW & 3rd Ave SW
21170,Seattle,W,SEA,YES,113 60,0,NA,NA,SW Roxbury St & 5th Pl SW
21250,King County,E,SEA,YES,113 H,1,NA,NA,SW Roxbury St & 26th Ave SW
22490,Seattle,N,SEA,YES,21E 22,0,NA,NA,35th Ave SW & SW 110th St
22500,Seattle,N,SEA,YES,21E 22,1,NA,NA,35th Ave SW & SW 108th St
22510,Seattle,N,SEA,YES,21E,0,NA,NA,35th Ave SW & SW 106th St
22520,Seattle,N,SEA,YES,21E,0,NA,NA,35th Ave SW & SW 104th St
22530,Seattle,N,SEA,YES,21E,0,NA,NA,35th Ave SW & SW 102nd St
22540,Seattle,N,SEA,YES,21E,0,NA,NA,35th Ave SW & SW 100th St
22550,Seattle,N,SEA,YES,21E,0,NA,NA,35th Ave SW & SW 98th St
24440,Seattle,S,SEA,YES,24,0,NA,NA,28th Ave W & W Bertona St
24450,Seattle,S,SEA,YES,24,1,NA,NA,28th Ave W & W Dravus St
24460,Seattle,S,SEA,YES,24,0,NA,NA,28th Ave W & W Barrett St
24470,Seattle,S,SEA,YES,24,0,NA,NA,28th Ave W & W Fulton St
24480,Seattle,S,SEA,YES,24,0,NA,NA,28th Ave W & W Raye St
24490,Seattle,S,SEA,YES,24,0,NA,NA,28th Ave W & W Smith St
24500,Seattle,S,SEA,YES,24,0,NA,NA,28th Ave W & W Lynn St
24510,Seattle,S,SEA,YES,24,0,NA,NA,28th Ave W & W Crockett St
24540,Seattle,N,SEA,YES,24,0,NA,NA,28th Ave W & W Crockett St
24544,Seattle,N,SEA,YES,24,0,NA,NA,28th Ave W & W Lynn St
109,Seattle,E,SEA,YES,11 8 G,0,NA,NA,E Madison St & 24th Ave E
111,Seattle,E,SEA,YES,11 8 988EN G,0,NA,NA,E Madison St & 27th Ave E
120,Seattle,W,SEA,YES,11 8 988EN G,0,NA,NA,E Madison St & 28th Ave E
121,Seattle,W,SEA,YES,G,0,NA,NA,E Madison St & 23rd Ave E
122,Seattle,W,SEA,YES,G,0,NA,NA,E Madison St & 22nd Ave
123,Seattle,W,SEA,YES,12 G,0,NA,NA,E Madison St & 17th Ave
124,Seattle,W,SEA,YES,G,0,NA,NA,E Madison St & 12th Ave
125,Seattle,W,SEA,YES,G,0,NA,NA,Madison St & Boylston Ave
126,Seattle,W,SEA,YES,G,0,NA,NA,Madison St & Terry Ave
127,Seattle,W,SEA,YES,G,0,NA,NA,Madison St & 8th Ave
28040,Seattle,S,SEA,YES,28E,1,NA,NA,8th Ave NW & NW 95th St
28060,Seattle,S,SEA,YES,28E,1,NA,NA,8th Ave NW & NW 90th St
29268,Seattle,E,SEA,YES,11 8,2,NA,NA,E Olive Way & Summit Ave E
1108,Metro King County,W,SEA,YES,599N,0,NA,NA,Westlake Sta AcRd & Transit Tunnel AcRd
1121,Metro King County,E,SEA,YES,599N,0,NA,NA,Westlake Sta AcRd & Transit Tunnel AcRd
29274,Seattle,E,SEA,YES,11 43 8,1,NA,NA,E Thomas St & 16th Ave E
29275,Seattle,E,SEA,YES,11 43 8,1,NA,NA,E Thomas St & 19th Ave E
29276,Seattle,E,SEA,YES,11 43 8,1,NA,NA,E John St & 22nd Ave E
29277,Seattle,E,SEA,YES,11 43 8,1,NA,NA,E John St & 12th Ave E
29278,Seattle,N,SEA,YES,43 48 988EN,0,NA,NA,23rd Ave E & E Republican St
30981,Seattle,S,SEA,YES,107,0,NA,NA,Beacon Ave S & S Othello St
31010,Seattle,S,SEA,YES,107,0,NA,NA,Beacon Ave S & S Holden St
2200,Seattle,S,SEA,YES,1 13 2 8 D,2,NA,NA,Queen Anne Ave N & W John St
3570,Seattle,N,SEA,YES,36 60,1,NA,NA,12th Ave S & S Judkins St
3580,Seattle,E,SEA,YES,36 60,1,NA,NA,S Charles St & Golf Dr S
31030,Seattle,S,SEA,YES,107,0,NA,NA,Beacon Ave S & S Monroe St
31050,Seattle,S,SEA,YES,107,0,NA,NA,Beacon Ave S & S Thistle St
31060,Seattle,S,SEA,YES,107,0,NA,NA,Beacon Ave S & S Cloverdale St
31070,Seattle,S,SEA,YES,107,0,NA,NA,Beacon Ave S & 37th Ave S
31090,Seattle,S,SEA,YES,107,0,NA,NA,39th Ave S & S Barton St
32160,Seattle,N,SEA,YES,60,0,NA,NA,16th Ave S & East Marginal Way S
3589,Seattle,N,SEA,YES,36 60,1,NA,NA,12th Ave S & S Weller St
3710,Seattle,S,SEA,YES,36 60,1,NA,NA,12th Ave S & S Weller St
3730,Seattle,S,SEA,YES,36 60,0,NA,NA,Golf Dr S & 14th Ave S
3740,Seattle,S,SEA,YES,36 60,0,NA,NA,14th Ave S & S Judkins St
6100,Seattle,S,SEA,YES,28E 5 E,1,NA,NA,Aurora Ave N & Galer St
6120,Seattle,S,SEA,YES,5,0,NA,NA,Aurora Ave N & Prospect St
33220,Seattle,E,SEA,YES,50 C,1,NA,NA,SW Alaska St & Fauntleroy Way SW
33221,Seattle,E,SEA,YES,50 773,1,NA,NA,SW Alaska St & 36th Ave SW
36090,Seattle,S,SEA,YES,125,0,NA,NA,21st Ave SW & 22nd Ave SW
7960,Seattle,E,SEA,YES,7,0,NA,NA,S Prentice St & 64th Ave S
7970,Seattle,N,SEA,YES,7,0,NA,NA,64th Ave S & S Ryan St
7980,Seattle,N,SEA,YES,7,0,NA,NA,64th Ave S & S Cooper St
8000,Seattle,N,SEA,YES,7,0,NA,NA,Waters Ave S & S Norfolk St
8010,Seattle,N,SEA,YES,7,0,NA,NA,Waters Ave S & S Pilgrim St
9530,Seattle,N,SEA,YES,70,0,NA,NA,Eastlake Ave E & E Hamlin St
9550,Seattle,N,SEA,YES,70,0,NA,NA,Eastlake Ave E & E Allison St
36100,Seattle,S,SEA,YES,125,0,NA,NA,21st Ave SW & SW Dawson St
36110,Seattle,E,SEA,YES,125,0,NA,NA,SW Dawson St & 18th Ave SW
36120,Seattle,S,SEA,YES,125,0,NA,NA,16th Ave SW & SW Brandon St
37748,Seattle,W,SEA,YES,79,0,NA,NA,NE 75th St & 40th Ave NE
9581,Seattle,N,SEA,YES,45 79,1,NA,NA,University Way NE & NE 41st St
10830,Seattle,N,SEA,YES,75,0,NA,NA,Sand Point Way NE & NE 123rd St
10840,Seattle,W,SEA,YES,75,0,NA,NA,NE 125th St & 39th Ave NE
10870,Seattle,W,SEA,YES,65 75,0,NA,NA,NE 125th St & 33rd Ave NE
21040,Seattle,N,SEA,YES,24,0,NA,NA,West Viewmont Way W & W Bertona St
21050,Seattle,N,SEA,YES,24,0,NA,NA,West Viewmont Way W & W Ruffner St
21090,King County,E,SEA,YES,113 128 60,1,NA,NA,SW Roxbury St & 12th Ave SW
21110,King County,E,SEA,YES,113 60,1,NA,NA,SW Roxbury St & 8th Ave SW
22370,Seattle,S,SEA,YES,21E 22,0,NA,NA,Marine View Dr SW & SW 104th St
27745,Seattle,S,SEA,YES,27,0,NA,NA,Lakeside Ave S & S Day St
29244,Seattle,S,SEA,YES,43 48 988EN,1,NA,NA,24th Ave E & E McGraw St
22390,Seattle,E,SEA,YES,21E 22,0,NA,NA,SW 106th St & 41st Ave SW
22400,Seattle,E,SEA,YES,21E 22,0,NA,NA,SW 106th St & 39th Ave SW
22410,Seattle,S,SEA,YES,21E 22,0,NA,NA,39th Ave SW & Marine View Dr SW
22420,Seattle,S,SEA,YES,21E 22,0,NA,NA,Marine View Dr SW & SW 110th St
22430,Seattle,S,SEA,YES,21E 22,0,NA,NA,Marine View Dr SW & SW 112th St
22440,Seattle,E,SEA,YES,21E 22,0,NA,NA,Marine View Dr SW & SW Ocean View Dr
22450,Seattle,S,SEA,YES,21E 22,0,NA,NA,Marine View Dr SW & SW Ocean View Dr
22460,Seattle,N,SEA,YES,21E 22,0,NA,NA,35th Ave SW & 37th Ave SW
22470,Seattle,N,SEA,YES,21E 22,0,NA,NA,35th Ave SW & SW 114th St
22480,Seattle,N,SEA,YES,21E 22,0,NA,NA,35th Ave SW & SW 112th St
24321,Unknown,S,SEA,UNK,24,0,NA,NA,34th Ave W & W Ruffner St
24330,Seattle,N,SEA,YES,24,0,NA,NA,34th Ave W & W Emerson St
24340,Seattle,N,SEA,YES,24,0,NA,NA,34th Ave W & W Thurman St
29248,Seattle,S,SEA,YES,43 48,0,NA,NA,24th Ave E & E Newton St
29251,Seattle,S,SEA,YES,43 48 988EN,1,NA,NA,24th Ave E & E Galer St
29253,Seattle,S,SEA,YES,43 48,0,NA,NA,24th Ave E & E Prospect St
30770,Seattle,S,SEA,YES,50,0,NA,NA,S Columbian Way & S Spokane St
30790,Seattle,S,SEA,YES,107 50 60,0,NA,NA,15th Ave S & S Dakota St
30800,Seattle,S,SEA,YES,107 50 60,0,NA,NA,15th Ave S & S Nevada St
24350,Seattle,N,SEA,YES,24,0,NA,NA,34th Ave W & W Elmore St
24370,Seattle,E,SEA,YES,24 33,0,NA,NA,W Government Way & 32nd Ave W
24380,Seattle,S,SEA,YES,24,0,NA,NA,30th Ave W & W Mansell St
24390,Seattle,S,SEA,YES,24,0,NA,NA,30th Ave W & W Thurman St
24400,Seattle,S,SEA,YES,24,0,NA,NA,30th Ave W & W Emerson St
24410,Seattle,E,SEA,YES,24,1,NA,NA,W Tilden St & 30th Ave W
24420,Seattle,E,SEA,YES,24,0,NA,NA,W Tilden St & 28th Ave W
24430,Seattle,S,SEA,YES,24,1,NA,NA,28th Ave W & W Ruffner St
26080,Seattle,N,SEA,YES,65,0,NA,NA,35th Ave NE & NE 115th St
26100,Seattle,N,SEA,YES,65,0,NA,NA,35th Ave NE & NE 120th St
26110,Seattle,N,SEA,YES,65,0,NA,NA,35th Ave NE & NE 123rd St
30820,Seattle,S,SEA,YES,50,1,NA,NA,S Columbian Way & S Snoqualmie St
30855,Seattle,S,SEA,YES,36,0,NA,NA,Beacon Ave S & S Dawson St
31950,Seattle,S,SEA,YES,128 50,0,NA,NA,California Ave SW & SW Hanford St
31970,Seattle,S,SEA,YES,128 50,0,NA,NA,California Ave SW & SW Spokane St
31990,Seattle,S,SEA,YES,128 50,0,NA,NA,California Ave SW & SW Andover St
32010,Seattle,S,SEA,YES,128 50,0,NA,NA,California Ave SW & SW Genesee St
32030,Seattle,N,SEA,YES,C,0,NA,NA,California Ave SW & SW Barton St
32140,Seattle,E,SEA,YES,132 60,0,NA,NA,S Cloverdale St & 12th Ave S
35821,Seattle,S,SEA,YES,48,1,NA,NA,23rd Ave E & E John St
35850,Seattle,S,SEA,YES,48,1,NA,NA,23rd Ave & E Pine St
35860,Seattle,S,SEA,YES,48,1,NA,NA,23rd Ave & E Union St
35890,Seattle,S,SEA,YES,48,0,NA,NA,23rd Ave S & S Dearborn St
100,Seattle,N,SEA,YES,G,0,NA,NA,1st Ave & Spring St
101,Seattle,E,SEA,YES,G,0,NA,NA,Spring St & 3rd Ave
102,Seattle,E,SEA,YES,2 636N G,0,NA,NA,Spring St & 4th Ave
103,Seattle,E,SEA,YES,G,0,NA,NA,Spring St & 8th Ave
104,Seattle,E,SEA,YES,G,0,NA,NA,Madison St & Terry Ave
105,Seattle,E,SEA,YES,G,0,NA,NA,Madison St & Boylston Ave
106,Seattle,E,SEA,YES,G,0,NA,NA,E Madison St & 12th Ave
107,Seattle,E,SEA,YES,12 G,0,NA,NA,E Madison St & 17th Ave
108,Seattle,E,SEA,YES,G,0,NA,NA,E Madison St & 22nd Ave
35910,Seattle,S,SEA,YES,48,0,NA,NA,23rd Ave S & S Judkins St
37450,Seattle,E,SEA,YES,62,0,NA,NA,NE 65th St & 33rd Ave NE
37470,Seattle,E,SEA,YES,62,0,NA,NA,NE 65th St & 38th Ave NE
37480,Seattle,E,SEA,YES,62,0,NA,NA,NE 65th St & 40th Ave NE
37490,Seattle,E,SEA,YES,62,0,NA,NA,NE 65th St & 43rd Ave NE
37500,Seattle,E,SEA,YES,62,0,NA,NA,NE 65th St & 45th Ave NE
37510,Seattle,E,SEA,YES,62,0,NA,NA,NE 65th St & Wellesley Way NE
37520,Seattle,E,SEA,YES,79,0,NA,NA,NE 65th St & Princeton Ave NE
37530,Seattle,N,SEA,YES,79,0,NA,NA,50th Ave NE & NE 68th St
37540,Seattle,N,SEA,YES,79,0,NA,NA,50th Ave NE & NE 70th St
2050,Seattle,S,SEA,YES,1,0,NA,NA,10th Ave W & W McGraw St
39240,Seattle,N,SEA,YES,348,0,NA,NA,15th Ave NE & NE 123rd St
39250,Seattle,N,SEA,YES,348,0,NA,NA,15th Ave NE & NE 125th St
39270,Seattle,N,SEA,YES,348,0,NA,NA,15th Ave NE & NE 130th St
39290,Seattle,N,SEA,YES,348,0,NA,NA,15th Ave NE & NE 135th St
39310,Seattle,N,SEA,YES,348,0,NA,NA,15th Ave NE & NE 140th St
39320,Seattle,N,SEA,YES,348,0,NA,NA,15th Ave NE & NE 143rd St
39230,Seattle,N,SEA,YES,348,0,NA,NA,15th Ave NE & NE 120th St
2060,Seattle,S,SEA,YES,1,0,NA,NA,10th Ave W & W Crockett St
2070,Seattle,S,SEA,YES,1,1,NA,NA,10th Ave W & W Howe St
2080,Seattle,S,SEA,YES,1,0,NA,NA,10th Ave W & W Blaine St
2090,Seattle,S,SEA,YES,1,1,NA,NA,10th Ave W & W Galer St
2100,Seattle,S,SEA,YES,1,1,NA,NA,Olympic Way W & W Lee St
2110,Seattle,S,SEA,YES,1,0,NA,NA,Olympic Way W & 9th Ave W
2120,Seattle,E,SEA,YES,1,0,NA,NA,W Olympic Pl & 7th Ave W
2130,Seattle,E,SEA,YES,1,0,NA,NA,W Olympic Pl & 5th Ave W
2140,Seattle,E,SEA,YES,1,0,NA,NA,W Olympic Pl & 3rd Ave W
2150,Seattle,E,SEA,YES,1,0,NA,NA,W Roy St & 2nd Ave W
40801,Seattle,N,SEA,YES,113,0,NA,NA,East Marginal Way S & S Lucile St
40804,Seattle,N,SEA,YES,113,1,NA,NA,East Marginal Way S & S Alaska St
40806,Seattle,N,SEA,YES,113,0,NA,NA,East Marginal Way S & Diagonal Ave S
40807,Seattle,N,SEA,YES,113,0,NA,NA,East Marginal Way S & S Idaho St
3500,Seattle,N,SEA,YES,36 60,2,NA,NA,14th Ave S & S Hill St
3515,Seattle,N,SEA,YES,36 60,1,NA,NA,14th Ave S & S Holgate St
3530,Seattle,W,SEA,YES,36 60,1,NA,NA,S Massachusetts St & 14th Ave S
3541,Seattle,N,SEA,YES,36 60,1,NA,NA,12th Ave S & S Massachusetts St
3550,Seattle,N,SEA,YES,36 60,0,NA,NA,12th Ave S & S Atlantic St
6030,Seattle,S,SEA,YES,5,1,NA,NA,Fremont Ave N & N 41st St
6040,Seattle,S,SEA,YES,5,0,NA,NA,Fremont Ave N & N 39th St
41940,Seattle,N,SEA,YES,303 322 60,1,NA,NA,9th Ave & James St
41950,Seattle,N,SEA,YES,303 322 60,0,NA,NA,9th Ave & Columbia St
41965,Seattle,N,SEA,YES,43 60 636N 9E,1,NA,NA,Broadway & E Union St
41980,Seattle,S,SEA,YES,43 60 96N 9E,0,NA,NA,Broadway & E Pike St
41982,Seattle,S,SEA,YES,43 60 636N 9E,0,NA,NA,Broadway & E Union St
6060,Seattle,S,SEA,YES,5,0,NA,NA,Aurora Ave N & Halladay St
6070,Seattle,S,SEA,YES,28E 5 E,1,NA,NA,Aurora Ave N & Lynn St
6071,Seattle,W,SEA,YES,773N 775,0,NA,NA,Access Rd & Harbor Ave SW
6072,Unknown,N,SEA,UNK,773 775,0,NA,NA,Harbor Ave SW & California Way SW
6080,Seattle,S,SEA,YES,5,1,NA,NA,Aurora Ave N & Crockett St
7810,Seattle,N,SEA,YES,E,1,NA,NA,Aurora Ave N & N Northgate Way
29256,Seattle,S,SEA,YES,43 48 988EN,1,NA,NA,23rd Ave E & E Republican St
29258,Seattle,W,SEA,YES,11 43 8,1,NA,NA,E John St & 22nd Ave E
29259,Seattle,W,SEA,YES,11 43 8,1,NA,NA,E Thomas St & 19th Ave E
29260,Seattle,W,SEA,YES,11 43 8,1,NA,NA,E Thomas St & 16th Ave E
7850,Seattle,N,SEA,YES,E,0,NA,NA,Aurora Ave N & N 115th St
7880,Seattle,N,SEA,YES,E,0,NA,NA,Aurora Ave N & N 125th St
7900,Seattle,N,SEA,YES,E,1,NA,NA,Aurora Ave N & N 130th St
7912,Seattle,N,SEA,YES,E,1,NA,NA,Aurora Ave N & N 135th St
41986,Seattle,S,SEA,YES,43 96N 9E,0,NA,NA,Broadway & Marion St
41987,Seattle,S,SEA,YES,43 9E,0,NA,NA,Broadway & Terrace St
41988,Seattle,S,SEA,YES,96N,0,NA,NA,Broadway & Terrace St
41990,Seattle,S,SEA,YES,193E 60,1,NA,NA,9th Ave & Marion St
42000,Seattle,S,SEA,YES,193E 60,0,NA,NA,9th Ave & Cherry St
42010,Seattle,S,SEA,YES,60,0,NA,NA,9th Ave & Alder St
42048,Seattle,S,SEA,YES,107 60,0,NA,NA,15th Ave S & S Stevens St
9460,Seattle,N,SEA,YES,70,1,NA,NA,Eastlake Ave E & E Garfield St
9480,Seattle,N,SEA,YES,70,1,NA,NA,Eastlake Ave E & E Howe St
9500,Seattle,N,SEA,YES,70,1,NA,NA,Eastlake Ave E & E Lynn St
9510,Seattle,N,SEA,YES,70,1,NA,NA,Eastlake Ave E & E Louisa St
10710,Seattle,N,SEA,YES,75,0,NA,NA,Sand Point Way NE & NE 93rd St
10720,Seattle,N,SEA,YES,75,0,NA,NA,Sand Point Way NE & NE 95th St
10730,Seattle,N,SEA,YES,75,0,NA,NA,Sand Point Way NE & NE 97th St
10750,Seattle,N,SEA,YES,75,0,NA,NA,Sand Point Way NE & NE 103rd St
10760,Seattle,N,SEA,YES,75,0,NA,NA,Sand Point Way NE & NE 106th St
35940,Seattle,S,SEA,YES,48,1,NA,NA,23rd Ave S & S Massachusetts St
35960,Seattle,W,SEA,YES,50,1,NA,NA,S Alaska St & 35th Ave S
10780,Seattle,N,SEA,YES,75,0,NA,NA,Sand Point Way NE & NE 110th St
10800,Seattle,N,SEA,YES,75,0,NA,NA,Sand Point Way NE & NE 115th St
10820,Seattle,N,SEA,YES,75,0,NA,NA,Sand Point Way NE & NE 120th St
12310,Seattle,W,SEA,YES,11,1,NA,NA,E Madison St & Lake Washington Blvd
12340,Seattle,W,SEA,YES,11 8,0,NA,NA,E Madison St & 25th Ave E
29266,Seattle,W,SEA,YES,11 8,1,NA,NA,E Olive Way & Summit Ave E
30870,Seattle,S,SEA,YES,36,0,NA,NA,Beacon Ave S & S Brandon St
30890,Seattle,S,SEA,YES,36,0,NA,NA,Beacon Ave S & S Orcas St
30910,Seattle,S,SEA,YES,36,0,NA,NA,Beacon Ave S & S Raymond St
12353,Seattle,W,SEA,YES,12,1,NA,NA,E Madison St & 19th Ave
13620,Seattle,S,SEA,YES,D,1,NA,NA,15th Ave NW & NW 80th St
13640,Seattle,S,SEA,YES,D,1,NA,NA,15th Ave NW & NW 75th St
13660,Seattle,S,SEA,YES,D,1,NA,NA,15th Ave NW & NW 70th St
13670,Seattle,S,SEA,YES,D,1,NA,NA,15th Ave NW & NW 65th St
13700,Seattle,S,SEA,YES,D,1,NA,NA,15th Ave NW & NW 60th St
35979,Seattle,W,SEA,YES,50,0,NA,NA,S Alaska St & Martin L King Jr Way S
35990,Seattle,W,SEA,YES,50,0,NA,NA,S Columbian Way & S Americus St
37550,Seattle,N,SEA,YES,79,0,NA,NA,50th Ave NE & NE 73rd St
37560,Seattle,W,SEA,YES,79,0,NA,NA,NE 75th St & 50th Ave NE
37570,Seattle,W,SEA,YES,79,0,NA,NA,NE 75th St & 48th Ave NE
37571,Seattle,W,SEA,YES,79,0,NA,NA,NE 75th St & 44th Ave NE
37600,Seattle,W,SEA,YES,79,0,NA,NA,NE 75th St & 41st Ave NE
17640,Seattle,N,SEA,YES,45,0,NA,NA,Wallingford Ave N & N 80th St
17650,Seattle,N,SEA,YES,45,1,NA,NA,Wallingford Ave N & N 82nd St
17651,Unknown,N,SEA,UNK,61,0,NA,NA,Wallingford Ave N & N 85th St
17680,Seattle,N,SEA,YES,61,0,NA,NA,Wallingford Ave N & N 90th St
17697,Seattle,S,SEA,YES,345 365 40 61,0,NA,NA,1st Ave NE & NE 95th St
30930,Seattle,S,SEA,YES,36,0,NA,NA,Beacon Ave S & S Graham St
30950,Seattle,S,SEA,YES,36,0,NA,NA,Beacon Ave S & S Holly St
30960,Seattle,S,SEA,YES,36,0,NA,NA,Beacon Ave S & 27th Ave S
32100,Seattle,E,SEA,YES,60,1,NA,NA,S Cloverdale St & 5th Ave S
18941,Seattle,W,SEA,YES,17E,0,NA,NA,Golden Gardens Dr NW & Loyal Ave NW
18942,Seattle,N,SEA,YES,17E,0,NA,NA,View Ave NW & Golden Gardens Dr NW
18990,Seattle,E,SEA,YES,773,1,NA,NA,Fauntleroy Way SW & SW Morgan St
19000,Seattle,N,SEA,YES,773,1,NA,NA,Fauntleroy Way SW & SW Juneau St
19010,Seattle,N,SEA,YES,773,0,NA,NA,Fauntleroy Way SW & SW Dawson St
19020,Seattle,N,SEA,YES,773N,0,NA,NA,Fauntleroy Way SW & SW Alaska St
19060,Seattle,S,SEA,YES,773,0,NA,NA,Fauntleroy Way SW & SW Dawson St
19070,Seattle,S,SEA,YES,773,0,NA,NA,Fauntleroy Way SW & SW Juneau St
21030,Seattle,N,SEA,YES,24,0,NA,NA,West Viewmont Way W & W Dravus St
22780,Seattle,N,SEA,YES,21,0,NA,NA,35th Ave SW & SW Hudson St
22790,Seattle,N,SEA,YES,21,1,NA,NA,35th Ave SW & SW Edmunds St
24690,Seattle,S,SEA,YES,24,0,NA,NA,34th Ave W & W Government Way
24700,Seattle,S,SEA,YES,24,0,NA,NA,34th Ave W & W Elmore St
24710,Seattle,S,SEA,YES,24,0,NA,NA,34th Ave W & W Thurman St
24720,Seattle,S,SEA,YES,24,1,NA,NA,34th Ave W & W Emerson St
24740,Seattle,S,SEA,YES,24,0,NA,NA,34th Ave W & W Bertona St
24750,Seattle,S,SEA,YES,24,0,NA,NA,34th Ave W & W Dravus St
24760,Seattle,S,SEA,YES,24,0,NA,NA,34th Ave W & W Barrett St
24770,Seattle,S,SEA,YES,24,0,NA,NA,34th Ave W & W Armour St
14070,Seattle,N,SEA,YES,17E 24 32 33 D,1,NA,NA,Elliott Ave W & W Prospect St
14110,Seattle,N,SEA,YES,32 D,1,NA,NA,15th Ave W & W Newton St
14130,Seattle,N,SEA,YES,32 D,0,NA,NA,15th Ave W & W Wheeler St
24780,Seattle,S,SEA,YES,24,0,NA,NA,34th Ave W & W Raye St
26410,Seattle,S,SEA,YES,31 32,0,NA,NA,Wallingford Ave N & N 39th St
26430,Seattle,S,SEA,YES,31 32,0,NA,NA,Wallingford Ave N & N 37th St
26450,Seattle,W,SEA,YES,31 32,1,NA,NA,N 35th St & Wallingford Ave N
26460,Seattle,W,SEA,YES,31 32,0,NA,NA,N 35th St & Woodlawn Ave N
26480,Seattle,W,SEA,YES,31 32 62,1,NA,NA,N 35th St & Stone Way N
26490,Seattle,W,SEA,YES,31 32 62,0,NA,NA,N 35th St & Troll Ave N
28230,Seattle,S,SEA,YES,28E,1,NA,NA,8th Ave NW & NW 51st St
28250,Seattle,S,SEA,YES,28E,1,NA,NA,8th Ave NW & NW 46th St
28255,Seattle,E,SEA,YES,40,1,NA,NA,NW Leary Way & 11th Ave NW
28260,Seattle,E,SEA,YES,28E 40,1,NA,NA,Leary Way NW & NW 43rd St
28265,Seattle,S,SEA,YES,40,1,NA,NA,Leary Way NW & 8th Ave NW
28280,Seattle,E,SEA,YES,40,0,NA,NA,Leary Way NW & 3rd Ave NW
260,Seattle,S,SEA,YES,113 162 177,0,NA,NA,2nd Ave & Lenora St
1230,Seattle,W,SEA,YES,550E,0,NA,NA,Union St & 4th Ave
1260,Seattle,W,SEA,YES,13 2 630,1,NA,NA,Seneca St & 6th Ave
2260,Seattle,E,SEA,YES,8,1,NA,NA,Denny Way & Fairview Ave
2262,Seattle,E,SEA,YES,8,1,NA,NA,Denny Way & Stewart St
2264,Seattle,E,SEA,YES,8,0,NA,NA,E Denny Way & Melrose Ave
2275,Seattle,W,SEA,YES,8,2,NA,NA,E Denny Way & Bellevue Ave
2285,Seattle,W,SEA,YES,8,0,NA,NA,Denny Way & Fairview Ave N
32364,Seattle,W,SEA,YES,50 773 C,1,NA,NA,SW Alaska St & Fauntleroy Ave SW
32371,Seattle,S,SEA,YES,128 775,0,NA,NA,California Ave SW & SW College St
2291,Seattle,W,SEA,YES,8,0,NA,NA,Denny Way & Westlake Ave N
2297,Seattle,W,SEA,YES,8,0,NA,NA,Denny Way & 6th Ave N
3870,Seattle,S,SEA,YES,36,0,NA,NA,Beacon Ave S & VA Hospital AcRd
3880,Seattle,S,SEA,YES,36,0,NA,NA,Beacon Ave S & VA Hospital AcRd
3881,Seattle,S,SEA,YES,36,1,NA,NA,Beacon Ave S & VA Hospital AcRd
3910,Seattle,E,SEA,YES,13 4,1,NA,NA,W McGraw St & 2nd Ave W
3920,Seattle,S,SEA,YES,13 4,0,NA,NA,Queen Anne Ave N & W McGraw St
34640,Seattle,N,SEA,YES,50 987EN,0,NA,NA,Seward Park Ave S & S Othello St
34650,Seattle,N,SEA,YES,50,0,NA,NA,Seward Park Ave S & S Myrtle St
34680,Seattle,N,SEA,YES,50,0,NA,NA,Seward Park Ave S & S Holly St
34700,Seattle,N,SEA,YES,50,0,NA,NA,Seward Park Ave S & 57th Ave S
3940,Seattle,E,SEA,YES,4,1,NA,NA,Boston St & Warren Ave N
6290,Seattle,N,SEA,YES,5,0,NA,NA,Aurora Ave N & Prospect St
6300,Seattle,N,SEA,YES,28E 5 E,1,NA,NA,Aurora Ave N & Galer St
6310,Seattle,N,SEA,YES,5,0,NA,NA,Aurora Ave N & Crockett St
6320,Seattle,N,SEA,YES,28E 5 E,1,NA,NA,Aurora Ave N & Lynn St
6330,Seattle,N,SEA,YES,5,0,NA,NA,Aurora Ave N & Halladay St
6360,Seattle,N,SEA,YES,5,1,NA,NA,Fremont Ave N & N 39th St
36300,Seattle,N,SEA,YES,H,1,NA,NA,Delridge Way SW & 21st Ave SW
36320,Seattle,W,SEA,YES,128,0,NA,NA,Sylvan Way SW & Delridge Way SW
36330,Seattle,W,SEA,YES,128,0,NA,NA,Sylvan Way SW & SW Sylvan Heights Dr
37850,Seattle,W,SEA,YES,62 79,0,NA,NA,NE 65th St & 55th Ave NE
6380,Seattle,N,SEA,YES,5,0,NA,NA,Fremont Ave N & N 41st St
8160,Seattle,N,SEA,YES,7 9E,1,NA,NA,Rainier Ave S & S Othello St
8175,Seattle,N,SEA,YES,7 9E,1,NA,NA,Rainier Ave S & S Frontenac St
8190,Seattle,N,SEA,YES,7 9E,1,NA,NA,Rainier Ave S & S Holly St
8231,Seattle,N,SEA,YES,7,1,NA,NA,Rainier Ave S & S Kenny St
8250,Seattle,N,SEA,YES,7 9E,2,NA,NA,Rainier Ave S & S Orcas St
37860,Seattle,W,SEA,YES,62 79,0,NA,NA,NE 65th St & 52nd Ave NE
37870,Seattle,W,SEA,YES,62 79,0,NA,NA,NE Princeton Way & Princeton Ave NE
37880,Seattle,W,SEA,YES,62,0,NA,NA,NE 65th St & 49th Ave NE
37890,Seattle,W,SEA,YES,62,0,NA,NA,NE 65th St & 47th Ave NE
37900,Seattle,W,SEA,YES,62,0,NA,NA,NE 65th St & 44th Ave NE
37910,Seattle,W,SEA,YES,62,0,NA,NA,NE 65th St & 42nd Ave NE
37920,Seattle,W,SEA,YES,62,1,NA,NA,NE 65th St & 39th Ave NE
37930,Seattle,W,SEA,YES,62,0,NA,NA,NE 65th St & 37th Ave NE
37950,Seattle,W,SEA,YES,62,0,NA,NA,NE 65th St & 32nd Ave NE
39446,Seattle,N,SEA,YES,22,0,NA,NA,41st Ave SW & SW Elmgrove St
39447,Seattle,N,SEA,YES,22,0,NA,NA,41st Ave SW & SW Kenyon St
39448,Seattle,N,SEA,YES,22,0,NA,NA,41st Ave SW & SW Holden St
9612,Seattle,E,SEA,YES,31 32,1,NA,NA,NE 42nd St & 8th Ave NE
9630,Seattle,N,SEA,YES,31 32 67,1,NA,NA,11th Ave NE & NE 42nd St
9660,Seattle,N,SEA,YES,67,0,NA,NA,11th Ave NE & NE 47th St
9680,Seattle,E,SEA,YES,65 75,0,NA,NA,NE 125th St & 33rd Ave NE
10990,Seattle,S,SEA,YES,49,1,NA,NA,10th Ave E & E Galer St
280,Seattle,S,SEA,YES,111 212 218 554E,0,NA,NA,2nd Ave & Stewart St
360,Seattle,S,SEA,YES,111 212 218 550E 554E,0,NA,NA,2nd Ave & Cherry St
361,Seattle,S,SEA,YES,101 102 150 162 177,0,NA,NA,2nd Ave & James St
39450,Seattle,W,SEA,YES,22,0,NA,NA,SW Ida St & California Ave SW
39451,Seattle,N,SEA,YES,22,0,NA,NA,California Ave SW & SW Austin St
39452,Seattle,N,SEA,YES,22,0,NA,NA,California Ave SW & SW Fontanelle St
39453,Seattle,N,SEA,YES,22,0,NA,NA,California Ave SW & SW Othello St
39454,Seattle,N,SEA,YES,22,0,NA,NA,California Ave SW & SW Myrtle St
39455,Seattle,N,SEA,YES,22,0,NA,NA,California Ave SW & SW Mills St
39456,Seattle,N,SEA,YES,22,0,NA,NA,California Ave SW & SW Holly St
11010,Seattle,S,SEA,YES,49,2,NA,NA,10th Ave E & E Prospect St
11011,Seattle,N,SEA,YES,9E,0,NA,NA,Broadway E & Broadway E
11025,Seattle,N,SEA,YES,630,0,NA,NA,Boren Ave & Jefferson St
11033,Seattle,N,SEA,YES,630,1,NA,NA,Boren Ave & Marion St
11035,Seattle,N,SEA,YES,630,1,NA,NA,Boren Ave & E Madison St
11040,Seattle,S,SEA,YES,49 60 9E,1,NA,NA,Broadway E & E Republican St
11050,Seattle,S,SEA,YES,49 60 9E,0,NA,NA,Broadway E & E Thomas St
12430,Seattle,E,SEA,YES,11,0,NA,NA,E Madison St & 38th Ave E
12440,Seattle,E,SEA,YES,11,0,NA,NA,E Madison St & 39th Ave E
1350,Seattle,E,SEA,YES,27,0,NA,NA,Yesler Way & 6th Ave S
2300,Seattle,W,SEA,YES,8,0,NA,NA,Denny Way & 5th Ave N
2320,Seattle,N,SEA,YES,1,0,NA,NA,1st Ave & Broad St
40871,Seattle,N,SEA,YES,124 60,1,NA,NA,Corson Ave S & S Willow St
40873,Seattle,N,SEA,YES,124 60,1,NA,NA,Corson Ave S & S Warsaw St
40876,Seattle,E,SEA,YES,124 60,0,NA,NA,S Bailey St & Carleton Ave S
12450,Seattle,E,SEA,YES,11,0,NA,NA,E Madison St & 41st Ave E
12460,Seattle,N,SEA,YES,11,0,NA,NA,43rd Ave E & E Blaine St
12479,Unknown,S,SEA,UNK,4 8,0,NA,NA,Martin L King Jr Way S & S Irving St
12480,Seattle,N,SEA,YES,11,0,NA,NA,43rd Ave E & E Lynn St
12484,Seattle,S,SEA,YES,4 8,0,NA,NA,Martin L King Jr Way S & S Hill St
13910,Seattle,E,SEA,YES,32 D,1,NA,NA,W Mercer St & 3rd Ave W
2360,Seattle,N,SEA,YES,1 13 2 8 D,2,NA,NA,1st Ave N & Republican St
3950,Seattle,E,SEA,YES,4,0,NA,NA,Boston St & Nob Hill Ave N
3960,Seattle,E,SEA,YES,4,1,NA,NA,Boston St & Bigelow Ave N
3980,Seattle,S,SEA,YES,4,1,NA,NA,5th Ave N & Newton St
14038,Seattle,W,SEA,YES,32 D,1,NA,NA,W Mercer St & 3rd Ave W
3990,Seattle,S,SEA,YES,4,0,NA,NA,Taylor Ave N & 5th Ave N
4000,Seattle,S,SEA,YES,4,1,NA,NA,Taylor Ave N & Garfield St
4010,Seattle,S,SEA,YES,4,1,NA,NA,Taylor Ave N & Lee St
4020,Seattle,S,SEA,YES,4,0,NA,NA,Taylor Ave N & Prospect St
4040,Seattle,S,SEA,YES,4,2,NA,NA,5th Ave N & Valley St
4050,Seattle,S,SEA,YES,4,1,NA,NA,5th Ave N & Republican St
6400,Seattle,W,SEA,YES,5,0,NA,NA,N 43rd St & Fremont Ave N
6420,Seattle,N,SEA,YES,5,0,NA,NA,Phinney Ave N & N 43rd St
16400,Seattle,S,SEA,YES,45 62,0,NA,NA,NE Ravenna Blvd & NE 68th St
17951,Seattle,S,SEA,YES,17E,0,NA,NA,Loyal Ave NW & Golden Gardens Dr NW
17952,Seattle,S,SEA,YES,17E,0,NA,NA,Golden Gardens Dr NW & NW 87th St
17970,Seattle,S,SEA,YES,17E,0,NA,NA,32nd Ave NW & NW 80th St
6460,Seattle,N,SEA,YES,5,0,NA,NA,Phinney Ave N & N 50th St
6480,Seattle,N,SEA,YES,5,0,NA,NA,Phinney Ave N & N 53rd St
6490,Seattle,N,SEA,YES,5,1,NA,NA,Phinney Ave N & N 55th St
6510,Seattle,N,SEA,YES,5,0,NA,NA,Phinney Ave N & N 58th St
8270,Seattle,N,SEA,YES,7,1,NA,NA,Rainier Ave S & S Brandon St
8285,Seattle,N,SEA,YES,7,1,NA,NA,Rainier Ave S & 39th Ave S
17980,Seattle,S,SEA,YES,17E,0,NA,NA,32nd Ave NW & NW 80th St
17990,Seattle,S,SEA,YES,17E,0,NA,NA,32nd Ave NW & NW 77th St
18000,Seattle,S,SEA,YES,17E,0,NA,NA,32nd Ave NW & NW 75th St
18010,Seattle,S,SEA,YES,17E,0,NA,NA,32nd Ave NW & NW 73rd St
18020,Seattle,S,SEA,YES,17E,0,NA,NA,32nd Ave NW & NW 72nd St
18030,Seattle,S,SEA,YES,17E,0,NA,NA,32nd Ave NW & NW 70th St
19360,Seattle,S,SEA,YES,40,1,NA,NA,24th Ave NW & NW 57th St
19380,Seattle,S,SEA,YES,24 33,0,NA,NA,Elliott Ave W & W Roy St
19390,Seattle,S,SEA,YES,24 33,0,NA,NA,Elliott Ave W & W Mercer St
19410,Seattle,S,SEA,YES,17E 24 33,1,NA,NA,Elliott Ave W & W Harrison St
19420,Seattle,S,SEA,YES,24 33,1,NA,NA,Western Ave W & 2nd Ave W
8300,Seattle,N,SEA,YES,7 9E,1,NA,NA,Rainier Ave S & S Edmunds St
8310,Seattle,N,SEA,YES,50 7,1,NA,NA,Rainier Ave S & S Alaska St
8350,Seattle,N,SEA,YES,7 9E,1,NA,NA,Rainier Ave S & S Andover St
8360,Seattle,N,SEA,YES,7,1,NA,NA,Rainier Ave S & 33rd Ave S
9710,Seattle,E,SEA,YES,75,0,NA,NA,NE 125th St & 39th Ave NE
9720,Seattle,S,SEA,YES,75,1,NA,NA,Sand Point Way NE & Bartlett Ave NE
9730,Seattle,S,SEA,YES,75,0,NA,NA,Sand Point Way NE & NE 120th St
9750,Seattle,S,SEA,YES,75,0,NA,NA,Sand Point Way NE & NE 115th St
19460,Seattle,N,SEA,YES,24 33,0,NA,NA,Western Ave W & 2nd Ave W
19470,Seattle,N,SEA,YES,17E 24 33,0,NA,NA,Elliott Ave W & 4th Ave W
19480,Seattle,N,SEA,YES,24 33,0,NA,NA,Elliott Ave W & 6th Ave W
21360,Seattle,N,SEA,YES,125 128,0,NA,NA,16th Ave SW & SW Trenton St
21370,Seattle,N,SEA,YES,125 128,0,NA,NA,16th Ave SW & SW Cloverdale St
21380,Seattle,N,SEA,YES,125 128,0,NA,NA,16th Ave SW & SW Thistle St
21390,Seattle,N,SEA,YES,125 128,0,NA,NA,16th Ave SW & SW Elmgrove St
21400,Seattle,N,SEA,YES,125 128,0,NA,NA,16th Ave SW & SW Kenyon St
21410,Seattle,N,SEA,YES,125 128,1,NA,NA,16th Ave SW & SW Holden St
21420,Seattle,W,SEA,YES,128,0,NA,NA,Dumar Way SW & SW Austin St
21430,Seattle,N,SEA,YES,128,0,NA,NA,Dumar Way SW & SW Orchard St
9770,Seattle,S,SEA,YES,75,0,NA,NA,Sand Point Way NE & NE 110th St
9790,Seattle,S,SEA,YES,75,0,NA,NA,Sand Point Way NE & NE 106th St
9800,Seattle,S,SEA,YES,75,0,NA,NA,Sand Point Way NE & NE 103rd St
11075,Seattle,S,SEA,YES,193E 303 322,0,NA,NA,Boren Ave & Seneca St
22700,Seattle,N,SEA,YES,21 21E,0,NA,NA,35th Ave SW & SW Holly St
22730,Seattle,N,SEA,YES,21,1,NA,NA,35th Ave SW & SW Raymond St
22750,Seattle,N,SEA,YES,21,0,NA,NA,35th Ave SW & SW Findlay St
22770,Seattle,N,SEA,YES,21,0,NA,NA,35th Ave SW & SW Dawson St
11087,Seattle,S,SEA,YES,193E 303 322,0,NA,NA,Boren Ave & Columbia St
11090,Seattle,W,SEA,YES,10 12 49,1,NA,NA,E Pine St & Belmont Ave
12486,Seattle,S,SEA,YES,8,0,NA,NA,Martin L King Jr Way S & S Bayview St
12496,Seattle,E,SEA,YES,4,1,NA,NA,S Plum St & 25th Ave S
2245,Seattle,E,SEA,YES,8,1,NA,NA,Denny Way & Cedar St
2247,Seattle,E,SEA,YES,8,0,NA,NA,Denny Way & 6th Ave
2255,Seattle,E,SEA,YES,8,1,NA,NA,Denny Way & Westlake Ave
3760,Seattle,S,SEA,YES,36 60,1,NA,NA,14th Ave S & S Massachusetts St
3770,Seattle,S,SEA,YES,36 60,0,NA,NA,14th Ave S & S Holgate St
3778,Seattle,S,SEA,YES,36 60,0,NA,NA,14th Ave S & S Hill St
3820,Seattle,S,SEA,YES,36,0,NA,NA,Beacon Ave S & S Stevens St
3830,Seattle,S,SEA,YES,36,0,NA,NA,Beacon Ave S & S Hanford St
6190,Seattle,S,SEA,YES,62,0,NA,NA,7th Ave & Blanchard St
36140,Seattle,S,SEA,YES,125,0,NA,NA,16th Ave SW & SW Findlay St
36170,Seattle,S,SEA,YES,125 128,0,NA,NA,16th Ave SW & SW Holly St
36180,Seattle,S,SEA,YES,125 128,0,NA,NA,16th Ave SW & SW Myrtle St
6220,Seattle,N,SEA,YES,62,1,NA,NA,7th Ave & Blanchard St
6236,Unknown,N,SEA,UNK,28E 5 E,2,NA,NA,7th Ave N & Denny Way
6240,Seattle,N,SEA,YES,62,1,NA,NA,Dexter Ave N & Denny Way
8030,Seattle,N,SEA,YES,7,0,NA,NA,Waters Ave S & S Carver St
8040,Seattle,N,SEA,YES,7,0,NA,NA,57th Ave S & Waters Ave S
8050,Seattle,W,SEA,YES,7,1,NA,NA,Rainier Ave S & Seward Park Ave S
36190,Seattle,S,SEA,YES,125 128,0,NA,NA,16th Ave SW & SW Webster St
37770,Seattle,E,SEA,YES,79,0,NA,NA,NE 75th St & 46th Ave NE
37780,Seattle,E,SEA,YES,79,0,NA,NA,NE 75th St & 48th Ave NE
37790,Seattle,E,SEA,YES,79,0,NA,NA,NE 75th St & 50th Ave NE
37800,Seattle,E,SEA,YES,79,0,NA,NA,NE 75th St & 52nd Ave NE
37810,Seattle,E,SEA,YES,79,0,NA,NA,NE 75th St & 55th Ave NE
37820,Seattle,S,SEA,YES,79,0,NA,NA,55th Ave NE & NE 73rd St
37830,Seattle,S,SEA,YES,79,0,NA,NA,55th Ave NE & NE 70th St
8070,Seattle,W,SEA,YES,7,1,NA,NA,Rainier Ave S & 52nd Ave S
8080,Seattle,N,SEA,YES,106 107 7,1,NA,NA,Rainier Ave S & S Fisher Pl
8100,Seattle,N,SEA,YES,7 9E,0,NA,NA,Rainier Ave S & Cloverdale Pl S
8140,Seattle,N,SEA,YES,7 9E,0,NA,NA,Rainier Ave S & S Holden St
9584,Seattle,N,SEA,YES,45 79,1,NA,NA,University Way NE & NE 45th St
37841,Seattle,E,SEA,YES,62,0,NA,NA,NE 65th St & 52nd Ave NE
37846,Seattle,E,SEA,YES,62 79,0,NA,NA,NE 65th St & 58th Ave NE
39438,Seattle,W,SEA,YES,22,0,NA,NA,SW Thistle St & 31st Ave SW
39439,Seattle,W,SEA,YES,22,0,NA,NA,SW Thistle St & 34th Ave SW
39440,Seattle,W,SEA,YES,22,0,NA,NA,SW Thistle St & 35th Ave SW
39441,Seattle,W,SEA,YES,22,0,NA,NA,SW Thistle St & 37th Ave SW
39442,Seattle,W,SEA,YES,22,0,NA,NA,SW Thistle St & 39th Ave SW
9589,Seattle,S,SEA,YES,67,1,NA,NA,Roosevelt Way NE & NE 50th St
9610,Seattle,S,SEA,YES,31 32 65,1,NA,NA,Roosevelt Way NE & NE 42nd St
10917,Seattle,S,SEA,YES,255 271 43 44 48 542E 556E 65 79,1,NA,NA,15th Ave NE & NE 40th St
39445,Seattle,N,SEA,YES,22,0,NA,NA,41st Ave SW & SW Rose St
10920,Seattle,S,SEA,YES,49,0,NA,NA,Harvard Ave E & E Shelby St
10940,Seattle,S,SEA,YES,49,1,NA,NA,10th Ave E & E Roanoke St
10950,Seattle,S,SEA,YES,49,0,NA,NA,10th Ave E & E Miller St
10970,Seattle,S,SEA,YES,49,0,NA,NA,10th Ave E & E Newton St
12373,Seattle,E,SEA,YES,12,0,NA,NA,E Madison St & 18th Ave
12390,Seattle,E,SEA,YES,11,0,NA,NA,E Madison St & 29th Ave E
12400,Seattle,E,SEA,YES,11,0,NA,NA,E Madison St & Lake Washington Blvd
12410,Seattle,E,SEA,YES,11,0,NA,NA,E Madison St & 33rd Ave E
12420,Seattle,E,SEA,YES,11,0,NA,NA,E Madison St & 36th Ave E
13830,Seattle,S,SEA,YES,32 D,1,NA,NA,15th Ave W & W Wheeler St
13840,Seattle,S,SEA,YES,32 D,1,NA,NA,15th Ave W & W Armory Way
13890,Seattle,S,SEA,YES,17E 24 32 33 D,1,NA,NA,Elliott Ave W & W Prospect St
17800,Seattle,N,SEA,YES,345 365,1,NA,NA,Meridian Ave N & N 120th St
17820,Seattle,W,SEA,YES,345 365,0,NA,NA,N 122nd St & Burke Ave N
17830,Seattle,N,SEA,YES,345 365,0,NA,NA,Densmore Ave N & N 125th St
17840,Seattle,N,SEA,YES,345 365,0,NA,NA,Densmore Ave N & N 128th St
17850,Seattle,E,SEA,YES,345 365,0,NA,NA,N 128th St & Meridian Ave N
17860,Seattle,N,SEA,YES,365,0,NA,NA,Meridian Ave N & N 130th St
17870,Seattle,N,SEA,YES,365,0,NA,NA,Meridian Ave N & N 133rd St
17880,Seattle,N,SEA,YES,365,0,NA,NA,Meridian Ave N & N 135th St
17890,Seattle,N,SEA,YES,365,0,NA,NA,Meridian Ave N & Roosevelt Way N
17900,Seattle,N,SEA,YES,365,0,NA,NA,Meridian Ave N & N 140th St
19250,Seattle,S,SEA,YES,40,0,NA,NA,24th Ave NW & NW 83rd St
19260,Seattle,S,SEA,YES,40,1,NA,NA,24th Ave NW & NW 80th St
19270,Seattle,S,SEA,YES,40,1,NA,NA,24th Ave NW & NW 77th St
19280,Seattle,S,SEA,YES,40,0,NA,NA,24th Ave NW & NW 75th St
19300,Seattle,S,SEA,YES,40,1,NA,NA,24th Ave NW & NW 70th St
19340,Seattle,S,SEA,YES,40,1,NA,NA,24th Ave NW & NW 61st St
21280,Seattle,E,SEA,YES,113 H,1,NA,NA,SW Roxbury St & 20th Ave SW
21292,Seattle,N,SEA,YES,128,1,NA,NA,16th Ave SW & SW Roxbury St
21295,Seattle,N,SEA,YES,128,1,NA,NA,16th Ave SW & SW Barton St
21310,Seattle,N,SEA,YES,60,0,NA,NA,Delridge Way SW & SW Cambridge St
21320,Seattle,N,SEA,YES,60,0,NA,NA,Delridge Way SW & SW Barton St
21350,Seattle,N,SEA,YES,125 128,1,NA,NA,16th Ave SW & SW Henderson St
22570,Seattle,N,SEA,YES,21 21E,0,NA,NA,35th Ave SW & SW Cambridge St
22580,Seattle,N,SEA,YES,21 21E,1,NA,NA,35th Ave SW & SW Barton St
22590,Seattle,N,SEA,YES,21 21E,0,NA,NA,35th Ave SW & SW Henderson St
22600,Seattle,N,SEA,YES,21 21E,0,NA,NA,35th Ave SW & SW Trenton St
22620,Seattle,N,SEA,YES,21 21E,1,NA,NA,35th Ave SW & SW Thistle St
22630,Seattle,N,SEA,YES,21 21E,1,NA,NA,35th Ave SW & SW Elmgrove St
22640,Seattle,N,SEA,YES,21 21E,0,NA,NA,35th Ave SW & SW Kenyon St
22650,Seattle,N,SEA,YES,21 21E,1,NA,NA,35th Ave SW & SW Holden St
22660,Seattle,N,SEA,YES,21 21E,1,NA,NA,35th Ave SW & SW Webster St
22680,Seattle,N,SEA,YES,21 21E,1,NA,NA,35th Ave SW & SW Myrtle St
24560,Seattle,N,SEA,YES,24,0,NA,NA,28th Ave W & W Halladay St
24570,Seattle,N,SEA,YES,24,0,NA,NA,28th Ave W & W Raye St
24580,Seattle,N,SEA,YES,24,0,NA,NA,28th Ave W & W Fulton St
24590,Seattle,N,SEA,YES,24,0,NA,NA,28th Ave W & W Barrett St
24600,Seattle,N,SEA,YES,24,0,NA,NA,28th Ave W & W Dravus St
24610,Seattle,N,SEA,YES,24,0,NA,NA,28th Ave W & W Bertona St
24620,Seattle,N,SEA,YES,24,0,NA,NA,28th Ave W & W Ruffner St
24630,Seattle,W,SEA,YES,24,0,NA,NA,W Tilden St & 29th Ave W
24640,Seattle,N,SEA,YES,24,0,NA,NA,30th Ave W & W Emerson St
24650,Seattle,N,SEA,YES,24,0,NA,NA,30th Ave W & W Thurman St
24660,Seattle,N,SEA,YES,24,0,NA,NA,31st Ave W & W Mansell St
24670,Seattle,N,SEA,YES,24,0,NA,NA,31st Ave W & W Jameson St
26369,Unknown,W,SEA,UNK,31 32,0,NA,NA,NE 40th St & 1st Ave NE
26370,Seattle,W,SEA,YES,31 32,0,NA,NA,N 40th St & Eastern Ave N
26381,Unknown,W,SEA,UNK,31 32,1,NA,NA,N 40th St & Bagley Ave N
28100,Seattle,S,SEA,YES,28E,1,NA,NA,8th Ave NW & NW 80th St
128,Seattle,W,SEA,YES,G,0,NA,NA,Madison St & 5th Ave
129,Seattle,W,SEA,YES,G,0,NA,NA,Madison St & 3rd Ave
28120,Seattle,S,SEA,YES,28E,1,NA,NA,8th Ave NW & NW 75th St
28130,Seattle,S,SEA,YES,28E,1,NA,NA,8th Ave NW & NW 73rd St
28140,Seattle,S,SEA,YES,28E,0,NA,NA,8th Ave NW & NW 70th St
28160,Seattle,S,SEA,YES,28E,1,NA,NA,8th Ave NW & NW 65th St
28180,Seattle,S,SEA,YES,28E,1,NA,NA,8th Ave NW & NW 61st St
29300,Seattle,N,SEA,YES,43 48,0,NA,NA,24th Ave E & E Prospect St
29301,Seattle,W,SEA,YES,11 43 8,1,NA,NA,E John St & 12th Ave E
1190,Seattle,E,SEA,YES,10 11 12 3 49 550E,0,NA,NA,Pike St & 6th Ave
1195,Unknown,E,SEA,UNK,10 11 12 3 49,0,NA,NA,Pike St & 7th Ave
29320,Seattle,N,SEA,YES,43 48 988EN,0,NA,NA,24th Ave E & E Galer St
29340,Seattle,N,SEA,YES,43 48,1,NA,NA,24th Ave E & Boyer Ave E
29350,Seattle,N,SEA,YES,43 48,0,NA,NA,24th Ave E & E Newton St
29361,Seattle,N,SEA,YES,43 48 988EN,1,NA,NA,24th Ave E & E McGraw St
14150,Seattle,N,SEA,YES,32 D,1,NA,NA,15th Ave W & W Armour St
16416,Unknown,E,SEA,UNK,45 62,1,NA,NA,NE 65th St & 8th Ave NE
18040,Seattle,S,SEA,YES,17E,0,NA,NA,32nd Ave NW & NW 67th St
18041,Seattle,S,SEA,YES,17E,1,NA,NA,32nd Ave NW & NW 64th St
18050,Seattle,S,SEA,YES,17E,0,NA,NA,32nd Ave NW & NW 61st St
18060,Seattle,S,SEA,YES,17E,0,NA,NA,32nd Ave NW & NW 59th St
18066,Seattle,E,SEA,YES,17E,1,NA,NA,NW Market St & 32nd Ave NW
18070,Seattle,S,SEA,YES,17E,0,NA,NA,32nd Ave NW & NW 56th St
18090,Seattle,E,SEA,YES,44,1,NA,NA,NW 54th St & 30th Ave NW
18100,Seattle,E,SEA,YES,17E 44,1,NA,NA,NW Market St & 28th Ave NW
19490,Seattle,N,SEA,YES,24 33,0,NA,NA,Elliott Ave W & W Mercer St
19500,Seattle,N,SEA,YES,24 33,0,NA,NA,Elliott Ave W & W Mercer Pl
19510,Seattle,N,SEA,YES,40,0,NA,NA,24th Ave NW & NW 57th St
19530,Seattle,N,SEA,YES,40,0,NA,NA,24th Ave NW & NW 61st St
19570,Seattle,N,SEA,YES,40,0,NA,NA,24th Ave NW & NW 70th St
19590,Seattle,N,SEA,YES,40,0,NA,NA,24th Ave NW & NW 75th St
19600,Seattle,N,SEA,YES,40,0,NA,NA,24th Ave NW & NW 77th St
19610,Seattle,N,SEA,YES,40,0,NA,NA,24th Ave NW & NW 80th St
21480,Seattle,N,SEA,YES,H,1,NA,NA,Delridge Way SW & SW Holly St
21500,Seattle,N,SEA,YES,H,1,NA,NA,Delridge Way SW & SW Graham St
21560,Seattle,N,SEA,YES,H,1,NA,NA,Delridge Way SW & SW Hudson St
21590,Seattle,N,SEA,YES,125,0,NA,NA,Delridge Way SW & SW Oregon St
22860,Seattle,S,SEA,YES,21,0,NA,NA,35th Ave SW & SW Edmunds St
22870,Seattle,S,SEA,YES,21,0,NA,NA,35th Ave SW & SW Hudson St
22880,Seattle,S,SEA,YES,21,0,NA,NA,35th Ave SW & SW Dawson St
22900,Seattle,S,SEA,YES,21,0,NA,NA,35th Ave SW & SW Findlay St
22912,Seattle,S,SEA,YES,21,0,NA,NA,35th Ave SW & SW Raymond St
24910,Seattle,S,SEA,YES,65,1,NA,NA,35th Ave NE & NE 123rd St
24920,Seattle,S,SEA,YES,65,0,NA,NA,35th Ave NE & NE 120th St
24940,Seattle,S,SEA,YES,65,0,NA,NA,35th Ave NE & NE 115th St
26520,Seattle,S,SEA,YES,40,0,NA,NA,Westlake Ave N & Dexter Ave N
26560,Seattle,S,SEA,YES,40,1,NA,NA,Westlake Ave N & Crockett St
26580,Seattle,S,SEA,YES,40,0,NA,NA,Westlake Ave N & 8th Ave N
26590,Seattle,S,SEA,YES,40,0,NA,NA,Westlake Ave N & Galer St
26600,Seattle,S,SEA,YES,40,0,NA,NA,Westlake Ave N & Highland Dr
28285,Seattle,E,SEA,YES,28E,0,NA,NA,N 39th St & Greenwood Ave N
28287,Seattle,E,SEA,YES,28E,0,NA,NA,N 39th St & Dayton Ave N
28300,Seattle,E,SEA,YES,40,1,NA,NA,N 36th St & 1st Ave NW
28310,Seattle,E,SEA,YES,40,1,NA,NA,N 36th St & Phinney Ave N
29440,Seattle,N,SEA,YES,271N 372E 44 48 542E 556E,4,NA,NA,15th Ave NE & NE Campus Pkwy
29480,Seattle,W,SEA,YES,44,1,NA,NA,NE 45th St & Latona Ave NE
29500,Seattle,W,SEA,YES,44,1,NA,NA,N 45th St & Corliss Ave N
