stop_id,auth_name,bearing_code,jurisdiction,kcm_managed_equipment,route_list,num_shelters,yrly_rel,yrly_rel_mins,stop_name
68463,Redmond,N,RED,YES,245,0,814.7583333333333,13.579305555555555,156th Ave NE & NE 45th St
85254,Unknown,N,MTL,UNK,331 333,0,741.4593853007088,12.357656421678481,Mntlake Terrace P&R AcRd & 236th St SW
53508,State Dept. of Transportation,E,KNT,YES,162 165,0,633.1647422889611,10.552745704816017,Kent Des Moines Rd & I-5 Ramp
10653,Seattle,W,SEA,YES,62,0,578.0824355367855,9.634707258946426,NOAA AcRd & Unnamed
53504,State Dept. of Transportation,S,KNT,YES,193E,1,533.7973101216073,8.896621835360122,I-5 Ramp & Kent Des Moines Rd
47970,State Dept. of Transportation,S,KNT,YES,193E,0,477.8105049208388,7.963508415347314,I-5 Ramp & S 272nd St
54760,Renton,E,RNT,YES,111,0,449.98220687626906,7.499703447937818,NE 30th St & I-405 Ramp
54003,King County,S,KC,YES,111,0,443.6932930677832,7.394888217796387,Lake Kathleen Rd SE & SE 128th St
83752,Metro King County,W,FDY,YES,177 193E,2,432.5754873062698,7.209591455104497,FedWay/S 320th St P&R AcRd & 25th Ave S
54841,Renton,E,RNT,YES,111,0,418.50153123718445,6.975025520619741,NE 16th St & Edmonds Ave NE
46730,Renton,S,RNT,YES,111,0,405.92223310570904,6.7653705517618175,Monroe Ave NE & NE 4th St
12470,Seattle,N,SEA,YES,11,1,398.29392834260915,6.6382321390434855,43rd Ave E & E Madison St
54060,King County,S,KC,YES,111,0,392.8926987460543,6.548211645767571,169th Ave SE & SE 144th St
30160,Seattle,W,SEA,YES,106 107 9E,1,377.50214482247304,6.291702413707884,S Henderson St & Renton Ave S
18930,Seattle,N,SEA,YES,17E,0,373.769906600967,6.22949844334945,32nd Ave NW & Loyal Way NW
64397,Snoqualmie,S,SNQ,YES,208 629,0,358.75485123057024,5.979247520509504,Railroad Ave SE & SE Northern St
80432,Federal Way,W,FDY,NO,177 193E,0,353.1107103371882,5.885178505619804,Federal Way TC AcRd & 23rd Ave S
62299,State Dept. of Transportation,E,COV,YES,168,0,349.11005706984224,5.8185009511640375,SE 272nd St & 169th Pl SE
29865,Seattle,E,SEA,YES,44,1,343.60754160369544,5.726792360061591,NE 45th St & Roosevelt Way NE
85781,North Bend,E,NOB,YES,208,0,342.1934530978321,5.703224218297202,NW 14th St & Boalch Ave NW
68005,Bellevue,E,BEL,NO,271 556E,1,340.2892564261484,5.671487607102474,Bellevue TC AcRd & 110th Ave NE
47235,King County,S,KC,YES,118,0,338.2029657477026,5.636716095795043,104th Ave SW & SW Burton Dr
41981,Seattle,S,SEA,YES,193E,0,330.2024863247962,5.503374772079937,9th Ave & Spring St
29254,Seattle,S,SEA,YES,43 48 988EN,1,330.0964285714286,5.501607142857143,23rd Ave E & E Aloha St
65015,WSD,N,BEL,YES,271,0,327.01434032114213,5.450239005352369,Lakemont Blvd SE & SE Newport Way
22260,Seattle,W,SEA,YES,21 22 C,1,324.1576445150772,5.40262740858462,SW Roxbury St & 28th Ave SW
64308,Unknown,S,NOB,UNK,208 629,0,323.51489054103797,5.391914842350633,Factory Outlet Mall AcRd & Mount Si Blvd
31680,Seattle,W,SEA,YES,132 60 987E,1,322.59166666666664,5.376527777777778,S Cloverdale St & 12th Ave S
72580,Redmond,N,RED,YES,250,0,316.3634135338346,5.272723558897243,Avondale Rd NE & NE 116th St
55928,Renton,N,RNT,YES,153 F,0,314.59175254926896,5.243195875821149,Lind Ave SW & SW 7th St
3250,Seattle,E,SEA,YES,2 988E,0,312.51260162601625,5.208543360433604,E Union St & 32nd Ave
720,Seattle,N,SEA,YES,212 554EN,0,305.5069002619683,5.091781671032805,4th Ave & Stewart St
64960,Bellevue,E,BEL,YES,271,0,303.4379754053517,5.057299590089196,SE Newport Way & 151st Ave SE
8641,Seattle,S,SEA,YES,106 48 634N 7 9E,1,300.9969107692143,5.016615179486905,Rainier Ave S & S Walker St
54135,King County,N,RNT,YES,111,0,295.2084411157203,4.920140685262004,Jericho Ave NE & NE 3rd Pl
84280,State Dept. of Transportation,S,BEL,YES,111,1,295.04794645073935,4.917465774178989,I-405 Ramp & Lake Washington Blvd SE
60453,Metro King County,N,KNT,YES,162 165,1,294.5302531750368,4.90883755291728,Lake Meridian P&R AcRd & 132nd Ave SE
29240,Seattle,E,SEA,YES,255 271 43 44 48 542E 556E 65,0,293.6875306477594,4.894792177462657,NE Pacific St & 15th Ave NE
60373,Renton,N,RNT,YES,153,0,288.8848645890738,4.81474774315123,Lind Ave SW & SW 43rd St
85066,Seattle,S,SEA,YES,113,0,287.5072209991561,4.791787016652602,East Marginal Way S & S Hudson St
19550,Seattle,N,SEA,YES,40,0,286.6652998236332,4.777754997060553,24th Ave NW & NW 65th St
55875,Seattle,W,SEA,YES,987E,0,284.1686507936508,4.73614417989418,S Dearborn St & Corwin Pl S
21850,Seattle,S,SEA,YES,545E,0,284.1492915438016,4.735821525730027,Airport Way S & S Royal Brougham Way
15395,Seattle,S,SEA,YES,21 50,1,283.97003308435626,4.732833884739271,1st Ave S & S Hanford St
29405,Seattle,W,SEA,YES,271 43 44 48,4,277.03919317393945,4.617319886232324,NE Pacific St & Montlake Blvd NE
62301,Covington,N,COV,YES,168,0,276.97574517806237,4.6162624196343724,SE Wax Rd & 176th Pl SE
15201,Unknown,S,SEA,UNK,21,0,276.1368332477425,4.602280554129042,1st Ave S & S Atlantic St
71345,Unknown,S,RED,NO,225 249 566E,0,274.20988455880996,4.570164742646833,Redmond Tech Station AcRd & 156th Ave NE
84354,Kent,N,KNT,YES,153,0,271.0376998054906,4.517294996758177,84th Ave S & S 212th St
64413,Snoqualmie,W,SNQ,YES,208,1,270.95802186231134,4.515967031038523,SE Ridge St & Center Blvd SE
59904,Renton,S,RNT,YES,153,0,270.2733485849568,4.50455580974928,Shattuck Ave S & S Grady Way
64512,Issaquah,E,ISS,YES,208,0,268.9060208175551,4.481767013625918,SE Bush St & Rainier Blvd S
37360,Seattle,E,SEA,YES,62,1,268.1102641810241,4.468504403017068,NE 65th St & 16th Ave NE
76036,Unknown,E,BOT,UNK,230,0,267.30172164822784,4.45502869413713,240th St SE & 35th Ave SE
71410,Redmond,E,RED,YES,249 895EN,0,266.73901515151516,4.445650252525253,NE 24th St & 173rd Ave NE
13870,Seattle,S,SEA,YES,24 32 33 D,1,266.49168854088333,4.441528142348056,Elliott Ave W & W Galer St
57776,Sound Transit,S,AUB,NO,566E 917,0,265.3299012409575,4.422165020682625,Auburn Sounder Station AcRd & 2nd St SW
56161,Seattle,S,SEA,YES,106,1,265.03105852494616,4.4171843087491025,Martin L King Jr Way S & S Othello St
40077,Seattle,S,SEA,YES,31 33,0,263.3242001155161,4.3887366685919345,Gilman Ave W & 23rd Ave W
65049,Issaquah,E,ISS,YES,271,0,262.6886786937048,4.378144644895079,NW Sammamish Rd & 15th Pl NW
62328,Covington,S,COV,YES,168,0,260.59514667397934,4.343252444566322,192nd Ave SE & SE 267th St
15460,Seattle,W,SEA,YES,21,0,260.22472117117826,4.337078686186304,SW Spokane St & 26th Ave SW
56450,King County,S,KC,YES,106,1,258.42687939686505,4.307114656614417,Renton Ave S & S 126th St
47872,King County,W,KC,YES,131,1,257.91263668580274,4.298543944763379,SW 112th St & 1st Ave SW
30690,Seattle,S,SEA,YES,131 132,1,257.4042604660422,4.29007100776737,4th Ave S & S Holgate St
18630,Seattle,W,SEA,YES,31 32,1,256.91588465745974,4.281931410957663,W Nickerson St & 3rd Ave W
64579,Issaquah,N,ISS,NO,271,0,256.65325577268936,4.277554262878156,Issaquah TC AcRd & NW Maple St
45870,Seattle,S,SEA,YES,131 132,1,255.68217073873672,4.261369512312279,4th Ave S & S Spokane St
49588,King County,N,KC,YES,128 131,1,254.88050439487992,4.248008406581332,8th Ave SW & SW 99th St
6640,Seattle,N,SEA,YES,5 61,0,254.5469948140094,4.242449913566824,Greenwood Ave N & N 85th St
26965,Seattle,E,SEA,YES,31 32,1,254.52546102186426,4.242091017031071,N 40th St & Wallingford Ave N
60480,Kent,E,KNT,YES,168,1,253.74394562312054,4.2290657603853425,SE Kent-Kangley Rd & 132nd Ave SE
80668,Renton,N,RNT,YES,153,0,253.06844903607734,4.217807483934623,Lind Ave SW & SW 16th St
31350,Seattle,N,SEA,YES,31 33,0,252.14801167238878,4.20246686120648,Thorndyke Ave W & W Blaine St
34930,Seattle,E,SEA,YES,50 987EN,0,251.71547619047618,4.195257936507937,S Genesee St & Cascadia Ave S
56031,Seattle,S,SEA,YES,106,1,251.7137366197845,4.195228943663075,Martin L King Jr Way S & S Alaska St
81434,King County,W,BOT,YES,239 257,0,251.7021223507552,4.195035372512587,NE 160th St & Juanita Woodinville Way NE
69028,Bellevue,W,BEL,YES,226 250,1,249.74930350020287,4.162488391670048,NE 10th St & 116th Ave NE
11060,Seattle,S,SEA,YES,43 49 60 636N 9E,0,249.09141227847414,4.151523537974569,Broadway & E Denny Way
6440,Seattle,N,SEA,YES,5,1,248.559362085873,4.14265603476455,Phinney Ave N & N 46th St
11150,Seattle,E,SEA,YES,10 12 49,0,248.29382236002505,4.138230372667084,E Pine St & Harvard Ave
2295,Seattle,W,SEA,YES,8,0,248.0419671819134,4.134032786365223,Denny Way & Dexter Ave N
29247,Seattle,E,SEA,YES,271 43 48 542E 556E,4,246.5890985186851,4.109818308644751,NE Pacific St & Montlake Blvd NE
81440,King County,S,BOT,YES,257,0,245.4109988394818,4.090183313991363,119th Ave NE & NE 159th St
85796,North Bend,S,NOB,YES,208,1,243.93530190645586,4.0655883651075975,Main Ave S & W Park St
10915,Seattle,N,SEA,YES,49,0,243.633329466697,4.060555491111617,Harvard Ave E & Eastlake Ave E
71359,State Dept. of Transportation,E,YP,YES,255 257 311 542E 545E 556E 982EN 986EN,0,243.42675706399362,4.057112617733227,SR 520 Ramp & 92nd Ave NE
60010,Renton,S,RNT,YES,102 148,0,241.66168144264188,4.027694690710698,116th Ave SE & SE 16th St
12210,Seattle,W,SEA,YES,11,0,241.5324088468793,4.025540147447988,E McGilvra St & 42nd Ave E
28470,Seattle,N,SEA,YES,28E,1,240.5426789921296,4.009044649868827,8th Ave NW & NW Market St
6237,Unknown,N,SEA,UNK,28E 5 E,2,240.29131430226272,4.004855238371046,7th Ave N & Harrison St
49733,Seattle,N,SEA,YES,132,0,239.88883195722025,3.998147199287004,8th Ave S & S Kenyon St
12487,Seattle,S,SEA,YES,4 8,0,239.5581268980466,3.9926354483007764,Martin L King Jr Way S & S Massachusetts St
17950,Seattle,N,SEA,YES,17E,0,239.44093719530358,3.990682286588393,View Ave NW & Loyal Ave NW
29280,Seattle,N,SEA,YES,43 48 988EN,1,239.35691056910568,3.989281842818428,23rd Ave E & E Aloha St
19440,Seattle,W,SEA,YES,17E 24 33,2,238.57114783681558,3.9761857972802597,Denny Way & Queen Anne Ave N
18390,Seattle,S,SEA,YES,62,0,238.1270337445288,3.968783895742147,Dexter Ave N & Harrison St
84014,Redmond,E,RED,YES,224 250,1,236.71175171659118,3.945195861943186,Avondale Way NE & 170th Pl NE
71348,Medina,E,MED,YES,255 257 311 542E 545E 556E 982EN 986EN,0,236.07776582847535,3.934629430474589,SR 520 Ramp & Evergreen Point Rd
49440,SeaTac,E,STC,YES,132,0,235.33179428199887,3.922196571366648,S 128th St & Roseberg Ave S
2250,Seattle,E,SEA,YES,8,1,234.67849674254282,3.9113082790423803,Denny Way & Dexter Ave
12010,Seattle,E,SEA,YES,14 8,0,234.62153638026749,3.910358939671125,S Jackson St & 23rd Ave S
45960,Seattle,S,SEA,YES,131 132,0,233.63864388201196,3.893977398033533,4th Ave S & S Front St
80762,Renton,S,RNT,YES,153,0,233.63120762376275,3.8938534603960457,Lind Ave SW & SW 16th St
37460,Seattle,E,SEA,YES,62,0,233.18756047995913,3.8864593413326523,NE 65th St & 35th Ave NE
6940,King County,W,SHL,YES,333 5,0,233.01630703294708,3.883605117215785,N Innis Arden Way & Greenwood Ave N
40097,Renton,N,RNT,YES,240,2,232.28374902329688,3.871395817054948,Duvall Ave NE & NE Sunset Blvd
99271,Metro King County,S,SEA,YES,101 102 150 177 D E,1,231.0640137887906,3.851066896479843,SODO Busway AcRd & S Royal Brougham Way
6340,Seattle,N,SEA,YES,28E 5,1,230.50666451040036,3.841777741840006,Aurora Ramp & N 38th St
41955,Seattle,N,SEA,YES,193E 303 322,0,229.49408455563733,3.824901409260622,9th Ave & Spring St
29270,Seattle,E,SEA,YES,11 43 636 8,1,229.17132970775774,3.819522161795962,E John St & Broadway E
29540,Seattle,W,SEA,YES,44,0,228.72560069893197,3.8120933449821996,N 45th St & Stone Way N
42080,Seattle,S,SEA,YES,107 60,1,226.30023770856448,3.7716706284760746,15th Ave S & S Oregon St
21833,Seattle,S,SEA,YES,124,1,225.6170280685354,3.760283801142257,6th Ave S & S Royal Brougham Way
7350,Seattle,S,SEA,YES,62,0,225.23749738819865,3.7539582898033106,Stone Way N & N 45th St
85924,King County,S,KC,YES,183,0,225.0282653088166,3.7504710884802765,31st Ave S & Military Rd S
85902,King County,E,KC,YES,183,0,224.33804759787546,3.738967459964591,S 288th St & 45th Pl S
75670,King County,W,SHL,YES,348,0,222.884750333141,3.7147458388856833,NW 196th St & Richmond Beach Dr NW
82854,State Dept. of Transportation,N,BOT,YES,311,1,222.88377976190475,3.7147296626984123,I-405 NB Ent Ramp & NE 160th St
65092,Issaquah,N,ISS,YES,271,0,222.56174715596154,3.709362452599359,Newport Way SW & W Sunset Way
64333,Snoqualmie,N,SNQ,YES,208 629,0,221.86512144266365,3.697752024044394,Railroad Ave SE & SE Northern St
67150,Bellevue,W,BEL,YES,221,0,221.7610932037171,3.696018220061952,SE 14th St & 165th Ave SE
29245,Seattle,S,SEA,YES,43 48,0,221.70191591676252,3.695031931946042,East Montlake Pl E & E Roanoke St
41989,Seattle,S,SEA,YES,43 9E,0,221.17127333792143,3.686187888965357,Boren Ave & E Yesler Way
22830,Seattle,S,SEA,YES,21 21E 50 773N C,1,220.41443997186278,3.673573999531046,35th Ave SW & SW Avalon Way
59358,Renton,E,RNT,YES,153 906,0,219.72827731295672,3.6621379552159454,SW 43rd St & Lind Ave SW
77890,King County,N,SHL,YES,333 348,0,219.62788552025515,3.660464758670919,15th Ave NE & NE 175th St
68597,Bellevue,S,BEL,YES,245 271,1,219.0965277734109,3.651608796223515,140th Ave SE & Lake Hills Blvd
80509,Kirkland,S,KIR,YES,225,1,218.86960101419976,3.647826683569996,132nd Ave NE & NE 117th St
27570,Seattle,E,SEA,YES,27 8,1,217.3777277401248,3.6229621290020804,E Yesler Way & 23rd Ave S
31460,Seattle,N,SEA,YES,31 33,0,217.09941184241623,3.6183235307069372,22nd Ave W & Gilman Ave W
64448,Issaquah,W,ISS,YES,208,0,217.03728826636197,3.6172881377726993,SE Bush St & Rainier Blvd S
75307,King County,N,SHL,YES,365 65,0,216.8296125914816,3.6138268765246933,5th Ave NE & NE 145th St
20890,Seattle,N,SEA,YES,24 31,0,216.27131529954278,3.6045219216590465,28th Ave W & W Blaine St
75820,State Dept. of Transportation,N,SHL,YES,E,1,215.33122176514811,3.5888536960858017,Aurora Ave N & N 145th St
57806,Auburn,E,AUB,YES,181 917,1,215.17526902964295,3.5862544838273824,15th St SW & Market St
7430,Seattle,W,SEA,YES,131 132 21 28E 5 E,2,215.1339392605069,3.585565654341782,Wall St & 5th Ave
68370,Bellevue,E,BEL,YES,226 249,0,214.41388754597196,3.573564792432866,NE 24th St & 156th Ave NE
99267,Seattle,N,SEA,YES,101 102 150 177 E,1,212.9268297285943,3.5487804954765716,SODO Busway AcRd & S Royal Brougham Way
26510,Seattle,S,SEA,YES,31 32 40 62,0,212.77838381513507,3.5463063969189177,Fremont Ave N & N 34th St
75909,King County,W,SHL,YES,348,1,212.5436276032391,3.542393793387318,N 185th St & Aurora Ave N
85782,North Bend,W,NOB,YES,208,0,212.30916400367516,3.5384860667279194,NW 14th St & Boalch Ave NW
24680,Seattle,W,SEA,YES,24 33,0,212.22359667626208,3.537059944604368,W Government Way & 33rd Ave W
11200,Seattle,N,SEA,YES,49 9E,1,211.62001887987853,3.527000314664642,Broadway E & E Mercer St
29600,Seattle,W,SEA,YES,44,1,211.26314584123975,3.521052430687329,N 46th St & Phinney Ave N
45780,Seattle,N,SEA,YES,131 132,1,211.2190379727473,3.520317299545788,4th Ave S & S Front St
22940,Seattle,S,SEA,YES,21 21E,1,211.06950083524833,3.5178250139208056,35th Ave SW & SW Morgan St
1370,Seattle,W,SEA,YES,27N 33,0,209.80657136692682,3.4967761894487803,Yesler Way & 3rd Ave
40802,Seattle,N,SEA,YES,113,0,209.7432212977585,3.495720354962642,East Marginal Way S & S Hudson St
72311,Kirkland,W,KIR,YES,245,0,209.42079952631738,3.4903466587719563,NE 70th Pl & 116th Ave NE
36931,Unknown,W,SEA,UNK,45 62 79,1,209.32695267255517,3.488782544542586,NE 65th St & 14th Ave NE
16390,Seattle,S,SEA,YES,45 62,0,209.18915033784407,3.4864858389640676,NE Ravenna Blvd & Woodlawn Ave NE
13760,Seattle,S,SEA,YES,17E D,2,208.41799052954516,3.4736331754924192,15th Ave NW & NW Leary Way
35570,Seattle,E,SEA,YES,40 45,0,208.37544836579923,3.472924139429987,NW 85th St & 22nd Ave NW
12600,Seattle,S,SEA,YES,4 48,0,208.19998692075922,3.469999782012654,23rd Ave & E Jefferson St
49490,King County,N,BUR,YES,128 132,0,207.937399997694,3.4656233332949,Military Rd S & S 128th St
31135,Seattle,E,SEA,YES,987E,0,207.5797619047619,3.4596626984126986,S Henderson St & Rainier Ave S
64583,Issaquah,W,ISS,YES,271,0,207.43783299889205,3.4572972166482008,NW Sammamish Rd & 15th Pl NW
25752,Seattle,N,SEA,YES,255 271 542E 556E 986EN,0,207.3825703076318,3.4563761717938633,Montlake Blvd E & E Shelby St
39340,Seattle,N,SHL,YES,348,1,207.32135760842186,3.4553559601403645,15th Ave NE & NE 145th St
26400,Seattle,W,SEA,YES,31 32,0,207.0255801440701,3.4504263357345013,N 40th St & Wallingford Ave N
51520,Burien,N,BUR,YES,H,1,206.9569716346752,3.4492828605779198,Ambaum Blvd SW & SW 128th St
49724,Seattle,S,SEA,YES,132,0,206.0887564872441,3.434812608120735,8th Ave S & S Monroe St
14360,Seattle,N,SEA,YES,40 D,1,205.98151237240123,3.433025206206687,15th Ave NW & NW 85th St
70170,Kirkland,S,KIR,YES,230 231 255,1,205.93667623240808,3.432277937206801,98th Ave NE & NE Juanita Dr
18465,Seattle,N,SEA,YES,62,1,205.90487673318682,3.4317479455531137,Dexter Ave N & Roy St
22160,Seattle,E,SEA,YES,128,0,205.88458473529624,3.4314097455882706,SW Orchard St & Delridge Way SW
45692,Seattle,W,SEA,YES,107,0,205.52269413611435,3.425378235601906,S Myrtle St & Beacon Ave S
84352,Kent,S,KNT,YES,153 161,0,205.45182813429193,3.424197135571532,84th Ave S & S 212th St
65335,Bellevue,E,BEL,YES,271,0,205.19250501159075,3.4198750835265126,SE Eastgate Way & SE Eastgate Way
57892,Metro King County,E,AUB,YES,566E,1,204.1774209708526,3.402957016180877,Auburn P&R AcRd & A St NE
61441,Federal Way,S,FDY,YES,182,0,204.114077341096,3.4019012890182667,9th Ave S & S 348th St
28600,Seattle,N,SEA,YES,28E,0,204.04395320876304,3.400732553479384,8th Ave NW & NW 84th St
35319,Seattle,S,SEA,NO,303,0,203.4396344874264,3.3906605747904397,Northgate Station AcRd & NE 100th St
25880,Seattle,N,SEA,YES,65,1,203.33528374300286,3.3889213957167144,35th Ave NE & NE 65th St
70516,Kirkland,S,KIR,YES,893,0,203.03863636363636,3.3839772727272726,120th Ave NE & NE 112th St
68390,Bellevue,S,BEL,YES,226 245 B,1,202.94364029603048,3.3823940049338415,156th Ave NE & NE 24th St
52636,SeaTac,W,STC,YES,161,1,202.6648187013184,3.3777469783553067,S 188th St & Military Rd S
250,Seattle,S,SEA,YES,111 113 162 177 212,0,202.46239867929918,3.374373311321653,2nd Ave & Bell St
9000,Seattle,S,SEA,YES,106 107 7,1,202.29433203648298,3.3715722006080497,Rainier Ave S & S Henderson St
28210,Seattle,S,SEA,YES,28E,1,201.32195241162813,3.3553658735271354,8th Ave NW & NW Market St
5980,Seattle,S,SEA,YES,5,1,200.6758251999483,3.344597086665805,Phinney Ave N & N 46th St
55940,Seattle,E,SEA,YES,987E,0,200.57579365079366,3.3429298941798944,S Dearborn St & Corwin Pl S
98750,Redmond,E,RED,YES,250 930,0,199.57174359575768,3.3261957265959614,NE 83rd St & 161st Ave NE
12640,Seattle,S,SEA,YES,4 48,0,199.36772344258893,3.3227953907098153,23rd Ave S & S Jackson St
58084,Kent,W,KNT,YES,161,1,199.2589859465722,3.320983099109537,S 212th St & 64th Ave S
57127,Kent,E,KNT,YES,165 914,0,199.24691695869174,3.320781949311529,SE 240th St & 104th Ave SE
6050,Seattle,S,SEA,YES,28E 5,0,198.81966410882023,3.313661068480337,SR 99 Ramp & N 38th St
58137,Kent,N,KNT,YES,150,0,198.77107279693487,3.312851213282248,58th Pl S & Russell Rd
1340,Seattle,E,SEA,YES,27,0,198.41247968856126,3.306874661476021,Yesler Way & Dilling Way
997,Unknown,N,SEA,UNK,162N 257 311,0,198.33620704243918,3.3056034507073195,6th Ave & Union St
40828,Tukwila,N,TUK,YES,128,0,198.30302931112504,3.305050488518751,Macadam Rd S & S 144th St
71353,State Dept. of Transportation,N,RED,YES,269 542E 545E,0,198.2388959405348,3.3039815990089134,SR 520 Ramp & NE 51st St
6710,Seattle,N,SEA,YES,5,0,197.95194619200896,3.2991991032001495,Greenwood Ave N & N 103rd St
37840,Seattle,S,SEA,YES,79,0,197.9512307404744,3.2991871790079066,55th Ave NE & NE 68th St
50703,Kent,E,KNT,YES,183,2,197.04196707404736,3.284032784567456,Reith Rd & 38th Ave S
60150,King County,E,KC,YES,148,0,196.7681962523689,3.279469937539482,SE Fairwood Blvd & 140th Ave SE
64845,Bellevue,E,BEL,YES,241 246,1,196.7630168786313,3.279383614643855,SE Newport Way & Factoria Blvd SE
50734,Federal Way,E,KNT,YES,183,0,196.61450813146774,3.276908468857796,S 272nd St & 26th Ave S
74785,Shoreline,S,SHL,YES,348,0,196.52372036612144,3.275395339435357,Richmond Beach Dr NW & NW 195th Pl
5790,Seattle,S,SEA,YES,5,1,195.38005587643636,3.256334264607273,Greenwood Ave N & N 85th St
26010,Seattle,N,SEA,YES,65,0,195.32831706966482,3.25547195116108,35th Ave NE & NE 95th St
64802,Bellevue,N,BEL,YES,245,0,195.29086588305236,3.2548477647175393,124th Ave SE & SE 44th St
30170,Seattle,W,SEA,YES,107,1,195.05214402413398,3.2508690670688996,S Henderson St & Martin L King Jr Way S
3600,Seattle,W,SEA,YES,1 106 14N 36 7,1,194.71331520253477,3.2452219200422463,S Jackson St & 12th Ave S
21440,Seattle,W,SEA,YES,128,0,194.02371185163489,3.2337285308605814,SW Orchard St & Delridge Way SW
61446,Federal Way,W,FDY,YES,182,0,193.87273181076614,3.2312121968461023,SW 356th St & 13th Way SW
760,Seattle,S,SEA,YES,257N 311N 545E,0,193.70190838204917,3.2283651397008195,5th Ave & Pine St
57113,Kent,E,KNT,YES,165,0,193.4197413011381,3.223662355018968,SE 240th St & 132nd Ave SE
31731,Seattle,N,SEA,YES,22 H,1,193.0374340090031,3.2172905668167187,26th Ave SW & SW Barton St
70180,Kirkland,N,KIR,YES,230 231 255,1,192.60184408257848,3.2100307347096413,98th Ave NE & NE 116th St
49930,SeaTac,W,STC,YES,132,0,192.23505240384085,3.203917540064014,S 128th St & Military Rd S
53538,State Dept. of Transportation,W,KNT,YES,183,0,192.12284255454463,3.202047375909077,S 272nd St & I-5 Ramp
9580,Seattle,E,SEA,YES,49 70 79,1,191.34024851010665,3.189004141835111,NE Campus Pkwy & Brooklyn Ave NE
9144,Seattle,W,SEA,YES,255,0,190.97717949774136,3.1829529916290227,NE Campus Pkwy & University Way NE
10916,Seattle,S,SEA,YES,49,1,190.87136763518578,3.1811894605864297,Harvard Ave E & Eastlake Ave E
23610,Seattle,N,SEA,YES,67,0,190.80538465571405,3.1800897442619007,Roosevelt Way NE & NE 75th St
3210,Seattle,E,SEA,YES,2,0,190.60571738158401,3.1767619563597336,E Union St & 23rd Ave
10513,Seattle,N,SEA,YES,65,2,190.520422935463,3.1753403822577164,40th Ave NE & NE 46th St
67655,Bellevue,W,BEL,NO,271 556E 981EN,0,190.23526784640876,3.170587797440146,Bellevue TC AcRd & 110th Ave NE
23831,Unknown,N,SEA,UNK,75,0,189.90170544242403,3.1650284240404005,5th Ave NE & NE 123rd St
71326,Redmond,N,RED,YES,221 249 269 B,1,189.6817018383377,3.161361697305628,152nd Ave NE & Overlake P&R AcRd
8330,Seattle,N,SEA,YES,7 9E,1,189.6539747702073,3.160899579503455,Rainier Ave S & S Genesee St
64840,Bellevue,N,BEL,YES,240 989EN,0,189.4595238095238,3.15765873015873,Factoria Blvd SE & Coal Creek Pkwy SE
59200,Auburn,N,AUB,YES,181,0,189.33927611428223,3.1556546019047036,M St NE & 4th St NE
7210,Seattle,S,SEA,YES,E,1,189.21383563990858,3.1535639273318097,Aurora Ave N & N 65th St
31930,Seattle,S,SEA,YES,128 50,0,188.49096674031253,3.1415161123385422,California Ave SW & SW Lander St
70826,Bellevue,N,BEL,YES,245,0,187.89825831639567,3.1316376386065943,140th Ave SE & SE 7th St
5710,Seattle,S,SEA,YES,5,1,187.79049402789994,3.1298415671316655,Greenwood Ave N & Holman Rd N
70529,Kirkland,W,KIR,YES,893,0,187.67992424242425,3.1279987373737375,Forbes Creek Dr & 108th Ave NE
4500,Seattle,S,SEA,YES,13,0,187.67565863464407,3.1279276439107346,Queen Anne Ave N & W Crockett St
74230,Kirkland,W,KIR,NO,255,0,187.58068802157632,3.1263448003596053,Totem Lake Transit Center AcRd & NE 128th St
5492,State Dept. of Transportation,N,SHL,YES,5,1,187.25890353337434,3.120981725556239,Shoreline CC AcRd & N Innis Arden Way
71336,State Dept. of Transportation,N,RED,NO,542E 545E 566E 982EN,1,186.83434456450377,3.1139057427417294,SR 520 Ramp & NE 40th St
39260,Seattle,N,SEA,YES,348,0,186.6547021651316,3.110911702752193,15th Ave NE & NE 127th St
2220,Seattle,S,SEA,YES,124 13N 14 1N 2 24N 27 33N 4 DN,1,186.61062536781714,3.110177089463619,3rd Ave & Cedar St
37940,Seattle,W,SEA,YES,62,1,186.4393951804288,3.1073232530071464,NE 65th St & 35th Ave NE
18740,Seattle,W,SEA,YES,17E 40 44,2,186.39044663994468,3.106507443999078,NW Market St & Ballard Ave NW
11358,Seattle,W,SEA,YES,31 32 48N,0,186.16039747138967,3.102673291189828,NE 45th St & University Way NE
65014,Bellevue,W,BEL,YES,271,0,186.07949819550572,3.1013249699250953,SE Newport Way & Lakemont Blvd SE
1085,Seattle,W,SEA,YES,10 11 12 3 49,0,185.88725917260172,3.0981209862100285,Pine St & 9th Ave
625,Seattle,E,SEA,YES,62,0,185.46397754339696,3.0910662923899492,S Washington St & 4th Ave S
844,Unknown,S,SEA,UNK,106 14 257 311 36 545E 630 7,0,185.2980547679208,3.08830091279868,5th Ave S & S Weller St
2330,Seattle,N,SEA,YES,1 13 2 8 D,1,184.9023469492486,3.0817057824874765,1st Ave N & Denny Way
11080,Seattle,W,SEA,YES,10 12 49,2,184.45420180244187,3.0742366967073647,E Pine St & Broadway
29091,Seattle,W,SEA,YES,31 32,1,184.19276739990204,3.069879456665034,Childrens Hospital AcRd & 45th Ave NE
32165,Boeing Aircraft Corporation,S,SEA,YES,124,1,184.01173693538183,3.066862282256364,East Marginal Way S & 16th Ave S
53070,Tukwila,S,TUK,YES,124,1,183.69843969637162,3.0616406616061935,Tukwila Intl Blvd & S 112th St
80496,Redmond,W,RED,YES,224 250,0,183.33434454799976,3.055572409133329,Avondale Way NE & 170th Pl NE
73812,Kirkland,N,KIR,NO,230 231,0,182.64611719406489,3.044101953234415,3rd St & Park Ln
67944,Bellevue,S,BEL,YES,241,0,182.30079344773858,3.03834655746231,108th Ave SE & SE 12th St
36525,South Seattle Community College,N,SEA,YES,125 128,3,182.27975220160937,3.037995870026823,South Seattle College AcRd & SW Findlay St
64585,Issaquah,N,ISS,NO,208 271 556E,0,181.63910525373302,3.02731842089555,Issaquah TC AcRd & Newport Way NW
13005,Seattle,N,SEA,YES,3 4,0,181.62500522729542,3.0270834204549235,21st Ave & E James St
50480,Kent,S,KNT,YES,165 A,1,181.32365636241332,3.022060939373555,Pacific Hwy S & Kent Des Moines Rd
10641,Seattle,N,SEA,YES,62 75,0,181.24368170258677,3.020728028376446,Sand Point Way NE & NE 74th St
74232,Kirkland,W,KIR,YES,225 239 255 893N 930,0,180.8754062424953,3.0145901040415883,Totem Lake Transit Center AcRd & NE 128th St
59882,Sound Transit,N,TUK,NO,F,0,180.83012205532657,3.013835367588776,Tukwila Station AcRd & Longacres Way
8681,Seattle,S,SEA,YES,106 7 9E,1,180.4777168696075,3.0079619478267916,Rainier Ave S & S Stevens St
7730,Seattle,N,SEA,YES,E,1,180.40804124915005,3.006800687485834,Aurora Ave N & N 85th St
9141,Seattle,S,SEA,YES,70,1,180.0046929736922,3.000078216228203,Eastlake Ave E & Harvard Ave E
72881,Bellevue,W,BEL,YES,246,0,179.8128206689649,2.996880344482748,Somerset Blvd SE & 143rd Ave SE
75409,Seattle,N,SEA,YES,E,2,179.19695581882786,2.9866159303137976,Aurora Ave N & N 46th St
6880,Seattle,N,SEA,YES,345 5,0,179.18434324434585,2.9864057207390977,Greenwood Ave N & N 145th St
700,Seattle,N,SEA,YES,101N 102N 111N 150N 177N 212N 218N 545E 554EN,0,179.03370965783265,2.9838951609638773,4th Ave & Pike St
31140,Seattle,N,SEA,YES,33,1,178.95069975231408,2.982511662538568,Discovery Park AcRd & Texas Way
14230,Seattle,N,SEA,YES,D,1,178.53726271109383,2.975621045184897,15th Ave NW & NW Market St
9605,Seattle,S,SEA,YES,31 32 65 67,1,178.51156177846238,2.9751926963077064,Roosevelt Way NE & NE 45th St
16380,Seattle,N,SEA,NO,322,0,178.14780899808602,2.9691301499681004,1st Ave NE & NE 100th St
9575,Seattle,E,SEA,YES,255 65,1,178.11688435163478,2.968614739193913,NE Campus Pkwy & University Way NE
45410,King County,N,KC,YES,107,0,177.60384194280783,2.9600640323801306,87th Ave S & NW 7th St
16520,Seattle,N,SEA,YES,45 62,1,177.47900532270472,2.957983422045079,NE Ravenna Blvd & NE 70th St
60450,Kent,S,KNT,YES,165,0,177.18329648768284,2.9530549414613807,132nd Ave SE & SE 256th St
26860,Seattle,N,SEA,YES,31 32 40 62,0,177.00586491101214,2.950097748516869,Fremont Ave N & N 34th St
10030,Seattle,W,SEA,YES,79,0,176.60708976051734,2.943451496008622,NE 55th St & 35th Ave NE
10562,Seattle,N,SEA,YES,75,1,176.5496583052123,2.9424943050868717,Sand Point Way NE & 40th Ave NE
73130,Redmond,S,RED,YES,221 225 245 B,1,176.20293962181327,2.9367156603635545,148th Ave NE & NE Old Redmond Rd
10280,Seattle,N,SEA,YES,303 322 70,0,175.8487019867605,2.9308116997793414,Fairview Ave N & Denny Way
77490,King County,S,SHL,YES,348,0,175.48006785340166,2.9246677975566944,15th Ave NE & NE 172nd St
73814,Kirkland,N,KIR,NO,230 231 250 255,0,175.24167196398898,2.9206945327331497,3rd St & Park Ln
41450,Seattle,W,SEA,YES,45,1,175.1413584288285,2.9190226404804753,N 85th St & Greenwood Ave N
29231,Seattle,E,SEA,YES,44 62,1,175.07938818123642,2.9179898030206073,N 45th St & Stone Way N
62234,Kent,E,KNT,YES,160 162 168,1,174.87851084082902,2.9146418473471503,SE 256th St & 101st Ave SE
30635,Seattle,N,SEA,YES,101 102 124N 131N 132N 150 177 21N 24 28E 33 5,1,174.79605083277536,2.9132675138795894,4th Ave S & S Royal Brougham Way
10640,Seattle,N,SEA,YES,62,1,174.64715944831005,2.9107859908051674,Sand Point Way NE & NE 74th St
12690,Seattle,S,SEA,YES,3,0,174.19456215289878,2.903242702548313,34th Ave & E Union St
2244,Seattle,E,SEA,YES,1 13 17E 2 24 33 8,2,173.51723512051535,2.891953918675256,Denny Way & 2nd Ave
80380,King County,N,BEL,YES,240 241 246,1,173.3439764259493,2.8890662737658217,Factoria Blvd SE & SE Newport Way
82235,Seattle,S,SEA,YES,67,0,173.10464483648778,2.8850774139414628,Roosevelt Way NE & NE 92nd St
30538,Seattle,N,SEA,YES,131 132,0,172.94930628561232,2.8824884380935387,4th Ave S & S Spokane St
36145,Seattle,S,SEA,YES,125,0,172.91910564532122,2.881985094088687,16th Ave SW & SW Findlay St
68598,Bellevue,W,BEL,YES,271,1,172.63899559316192,2.877316593219365,Lake Hills Connector & 140th Ave SE
41740,Seattle,S,SEA,YES,107 124 60,1,172.07746753308606,2.867957792218101,13th Ave S & S Bailey St
39431,King County,N,KC,YES,H,1,172.0765130021838,2.86794188336973,15th Ave SW & SW Roxbury St
3037,Seattle,W,SEA,YES,13 2 630,0,171.9720674461789,2.8662011241029814,Seneca St & 8th Ave
32150,Seattle,N,SEA,YES,60,1,171.94895243070593,2.865815873845099,14th Ave S & S Cloverdale St
5330,Seattle,E,SEA,YES,45 61,0,171.48768417903685,2.858128069650614,N 85th St & Greenwood Ave N
64670,King County,W,BEL,YES,271,0,171.46545247475277,2.8577575412458796,SE Newport Way & 151st Ave SE
75403,University of Washington,S,SEA,YES,372EN 45 67,0,171.13270065229366,2.852211677538228,East Stevens Way NE & Benton Ln
45453,Seattle,W,SEA,YES,107,0,171.0376468051283,2.850627446752138,S 114th St & Cornell Ave S
5420,Seattle,W,SEA,YES,45 61,0,170.96401005985763,2.8494001676642937,N 85th St & Wallingford Ave N
73079,Redmond,W,RED,YES,249 269 895EN,0,170.5030303030303,2.8417171717171716,NE 40th St & 159th Ave NE
5400,Seattle,E,SEA,YES,45,1,170.4612502474251,2.8410208374570853,N 85th St & Wallingford Ave N
21450,Seattle,N,SEA,YES,H,1,170.3757795556767,2.839596325927945,Delridge Way SW & SW Myrtle St
37081,Seattle,W,SEA,YES,40 45,1,170.21701925215984,2.8369503208693305,NW 85th St & 15th Ave NW
31670,Seattle,S,SEA,YES,60,0,170.02167335605108,2.833694555934185,14th Ave S & S Cloverdale St
68803,Duvall,N,DUV,YES,224 627 629,0,169.89296964228276,2.831549494038046,Brown Ave NE & NE Richardson St
17694,Seattle,W,SEA,YES,345 365,1,169.83305843656424,2.8305509739427372,North Seattle College AcRd & College Way N
28080,Seattle,S,SEA,YES,28E,1,169.6672658061781,2.827787763436302,8th Ave NW & NW 85th St
50787,Kent,W,KNT,YES,183,0,169.3809819478696,2.8230163657978267,Reith Rd & 38th Ave S
840,Seattle,N,SEA,YES,257 311,2,169.359720464453,2.8226620077408833,5th Ave S & S Jackson St
300,Seattle,S,SEA,YES,101 102 113 150 162 177,3,169.31934129877396,2.8219890216462327,2nd Ave & Pike St
39443,Seattle,W,SEA,YES,22,0,168.94087653799022,2.81568127563317,SW Thistle St & 41st Ave SW
21765,Seattle,N,SEA,YES,124 545E,1,168.36429198037655,2.8060715330062758,6th Ave S & S Royal Brougham Way
26645,Seattle,S,SEA,YES,40 98N C,0,168.28658342200148,2.8047763903666914,Westlake Ave N & Harrison St
36890,Seattle,N,SEA,YES,45N,0,168.25623359520964,2.8042705599201607,15th Ave NE & NE 52nd St
65940,WSD,S,CH,YES,246,0,168.16577085766227,2.8027628476277044,92nd Ave NE & SR 520 Ramp
39429,Seattle,W,SEA,YES,22,0,168.05212489167155,2.800868748194526,SW Thistle St & 28th Ave SW
68750,Bellevue,N,BEL,YES,245 B,2,167.77193431782257,2.7961989052970426,156th Ave NE & NE 10th St
31590,Seattle,W,SEA,YES,113 128 60,1,167.6561709203766,2.79426951533961,SW Roxbury St & 15th Ave SW
8401,Seattle,N,SEA,YES,106 7 987EN 9E,1,167.4844386496555,2.7914073108275916,Rainier Ave S & S Forest St
1530,Seattle,W,SEA,YES,1 13 14N 2N 36N 3N 4N 62 7 70,0,166.84545081939893,2.7807575136566487,S Jackson St & 5th Ave S
31610,Tukwila,N,TUK,YES,124,1,166.65431418282017,2.777571903047003,Tukwila Intl Blvd & S 112th St
67470,Bellevue,W,BEL,YES,221,1,166.0971681469397,2.7682861357823283,NE 8th St & 156th Ave NE
47972,State Dept. of Transportation,N,KNT,YES,177 193E,1,166.06803422553511,2.7678005704255852,I-5 Ramp & S 272nd St
11352,Seattle,N,SEA,YES,271 372E 44 48 49N 542E 556E 70,1,165.84313426614716,2.7640522377691195,15th Ave NE & NE 42nd St
68740,Bellevue,N,BEL,YES,226 245,0,165.75617823748786,2.7626029706247976,156th Ave NE & NE 8th St
57210,State Dept. of Transportation,N,KNT,YES,160,0,165.44246055207222,2.757374342534537,108th Ave SE & SE 208th St
3860,Seattle,S,SEA,YES,36,0,165.32796698483648,2.7554661164139413,Beacon Ave S & S Spokane St
8760,Seattle,S,SEA,YES,50 7 9E,1,164.98960133444047,2.749826688907341,Rainier Ave S & S Genesee St
55780,Seattle,N,SEA,YES,106,0,164.7836010910293,2.7463933515171552,Martin L King Jr Way S & S Alaska St
12860,Seattle,W,SEA,YES,193E 3 303 322 4,1,164.71684422713687,2.745280737118948,Jefferson St & Broadway
50010,SeaTac,S,STC,YES,132,0,164.65977596560268,2.7443295994267114,Des Moines Memorial Dr S & S 128th St
1180,Seattle,E,SEA,YES,10 11 12 3 49,0,164.54997675686542,2.7424996126144237,Pike St & 4th Ave
40032,Seattle,W,SEA,YES,40,1,164.38636049071923,2.7397726748453204,N 105th St & Aurora Ave N
48810,Des Moines,S,DES,YES,165 635,0,164.3602560777765,2.7393376012962753,Marine View Dr S & S 223rd St
7160,Seattle,S,SEA,YES,E,1,164.12580471563052,2.735430078593842,Aurora Ave N & N 84th St
82878,Kirkland,N,KIR,NO,311,0,163.92799994292918,2.732133332382153,I-405 Exp Ramp & NE 128th St
80031,Kent,S,KNT,YES,165,0,163.83543925393926,2.730590654232321,Lakeside Blvd E & S 228th St
11085,Seattle,S,SEA,YES,193E 303 322,0,163.68663201263314,2.7281105335438856,Boren Ave & Madison St
30460,Seattle,W,SEA,YES,50,1,163.3083806991388,2.7218063449856467,S Columbian Way & Beacon Ave S
68440,Bellevue,S,BEL,YES,226 245,1,163.2767858181996,2.72127976363666,156th Ave NE & NE 8th St
69876,King County,E,KIR,YES,225,0,162.70132703410496,2.7116887839017494,NE 132nd St & 86th Pl NE
450,Seattle,S,SEA,YES,13N 14 17EN 1N 2 3 36 4 40N 49N 62N 7 70N,0,162.68792148912968,2.7114653581521613,3rd Ave & Union St
29262,Seattle,W,SEA,YES,11 43 8,2,162.5391038146428,2.70898506357738,E John St & Broadway E
6176,Unknown,S,SEA,UNK,28E 5 E,2,162.5080109766503,2.708466849610838,7th Ave N & Thomas St
73240,Bellevue,S,BEL,YES,221 225 269 B,1,162.17529039959567,2.7029215066599277,148th Ave NE & NE 51st St
71341,State Dept. of Transportation,S,RED,YES,542E 545E,1,161.86882246143432,2.697813707690572,SR 520 Ramp & NE 51st St
16440,Seattle,S,SEA,YES,67,1,161.53950170239906,2.6923250283733178,Roosevelt Way NE & NE 65th St
8494,Unknown,N,SEA,UNK,106 212 554E 7 9E,2,161.50137425569892,2.6916895709283155,Rainier Ave S & S Charles St
41247,Tukwila,E,TUK,YES,128,0,161.3693342043881,2.6894889034064686,S 144th St & 53rd Ave S
75932,State Dept. of Transportation,N,SHL,YES,E,0,161.2098135948326,2.6868302265805437,Aurora Ave N & N 200th St
85260,Kirkland,E,KIR,YES,225 257,0,160.6864257463882,2.6781070957731368,NE 132nd St & 100th Ave NE
68354,Bellevue,N,BEL,YES,250,0,160.6185847433199,2.676976412388665,116th Ave NE & Northup Way
3032,Seattle,W,SEA,YES,2,1,160.51040371559208,2.675173395259868,E Union St & Broadway
27175,Seattle,N,SEA,YES,27,0,160.42786712950684,2.6737977854917805,36th Ave S & S Day St
59552,King County,E,KC,YES,102 148 906,0,160.3357000326115,2.6722616672101918,SE Petrovitsky Rd & 140th Ave SE
48880,Des Moines,S,DES,YES,165,0,160.248475900233,2.67080793167055,Marine View Dr S & S 240th St
36940,Seattle,W,SEA,YES,45 62 79N,0,159.89890039814676,2.6649816733024463,NE 65th St & 12th Ave NE
61310,Federal Way,S,FDY,YES,A,1,159.79652782347216,2.663275463724536,Pacific Hwy S & S 312th St
85210,King County,N,KC,YES,113 22,0,159.3678402387457,2.6561306706457617,26th Ave SW & SW 106th St
320,Seattle,S,SEA,YES,111 212 218 550E 554E,3,159.3500041712255,2.6558334028537582,2nd Ave & Seneca St
9132,Seattle,S,SEA,YES,45 75 79,2,158.9092543779988,2.6484875729666464,University Way NE & NE 50th St
2370,Seattle,W,SEA,YES,1 32 8 D,1,158.60908834660157,2.643484805776693,Mercer St & Queen Anne Ave N
75732,Shoreline,E,SHL,YES,348,1,158.51133906295703,2.641855651049284,N 185th St & Aurora Ave N
40880,Seattle,N,SEA,YES,124,1,157.9519353211534,2.6325322553525567,13th Ave S & S Bailey St
70040,King County,S,BOT,YES,231 257,0,157.59588731713205,2.6265981219522008,Juanita Woodinville Way NE & 115th Ave NE
79562,Seattle,N,SEA,YES,124,0,157.53281435881664,2.6255469059802774,East Marginal Way S & 16th Ave S
20650,Seattle,N,SEA,YES,24,0,157.33992549536947,2.622332091589491,35th Ave W & W McGraw St
99751,Bellevue,N,BEL,YES,246,0,157.18532562400443,2.6197554270667407,123rd Ave SE & SE 20th Pl
38730,Seattle,N,SEA,YES,65,0,156.82569349834571,2.613761558305762,30th Ave NE & NE 143rd St
70130,Kirkland,S,KIR,YES,230 231,0,156.6033110934923,2.610055184891538,100th Ave NE & NE 132nd St
400,Seattle,S,SEA,YES,124 131 132 13N 14 17EN 1N 2 21 24N 27 33N 4 56 57 DN EN,2,156.3729599119201,2.6062159985320017,3rd Ave & Bell St
68398,Redmond,S,RED,NO,245 B,1,155.8654759663482,2.59775793277247,156th Ave NE & NE 40th St
433,Seattle,S,SEA,YES,124 125 131 132 24N 27 33N H,0,155.75984162544006,2.595997360424001,3rd Ave & Pike St
85942,King County,N,KC,YES,183,0,155.38810282919002,2.5898017138198335,31st Ave S & Military Rd S
31230,Seattle,S,SEA,YES,31 33,1,155.28859532519647,2.5881432554199413,22nd Ave W & Gilman Ave W
58394,Auburn,E,AUB,YES,184,0,155.21295231797725,2.5868825386329544,17th St SE & K St SE
8870,Seattle,S,SEA,YES,7 9E,1,154.77403737885115,2.5795672896475192,Rainier Ave S & S Graham St
57640,Auburn,S,AUB,YES,184,0,154.63944465858498,2.577324077643083,F St SE & 29th St SE
1250,Seattle,W,SEA,YES,13 2,0,154.62871638291898,2.5771452730486497,Seneca St & 4th Ave
20530,Seattle,W,SEA,YES,24,0,154.2707415489852,2.57117902581642,W Emerson St & Magnolia Blvd W
64065,Mercer Island,E,MI,NO,204 550E 554E 630 989EN,1,154.0597522841743,2.5676625380695715,N Mercer Way & 80th Ave SE
46791,King County,N,KC,YES,118 119,0,154.05191222801196,2.567531870466866,Vashon Hwy SW & S 204th St
41830,Seattle,N,SEA,YES,107 60,1,153.82981554238307,2.563830259039718,15th Ave S & S Oregon St
41121,SeaTac,S,STC,YES,128,0,153.8200973189862,2.56366828864977,Military Rd S & S 128th St
21620,Seattle,N,SEA,YES,125 50 H,1,153.70688958904574,2.5617814931507623,Delridge Way SW & SW Andover St
8590,Seattle,S,SEA,YES,106 212 554E 7 9E,3,153.6923125481762,2.5615385424696036,Rainier Ave S & S Norman St
905,Seattle,W,SEA,YES,101 102 150 218 257N 311N 545EN,0,153.66184051615855,2.561030675269309,Stewart St & Yale Ave N
77738,Shoreline,W,SHL,YES,333,1,153.60332376176882,2.5600553960294805,NE 175th St & 15th Ave NE
2672,Seattle,S,SEA,YES,1 13 2 32N 8 D,0,153.43762599923173,2.557293766653862,Queen Anne Ave N & W Mercer St
880,Seattle,E,SEA,YES,7 70,1,153.3869532903763,2.5564492215062717,Virginia St & 6th Ave
46822,King County,W,KC,YES,119,0,153.2596109578724,2.5543268492978735,SW 264th St & 99th Ave SW
375,Seattle,S,SEA,YES,111 212 218 550E 554E,2,152.8117963093337,2.546863271822228,2nd Ave Ext S & Yesler Way
11030,Seattle,W,SEA,YES,49 9E,0,152.77753373239725,2.546292228873287,E Roy St & Broadway E
46233,Seattle,E,SEA,YES,107,0,152.64554902211933,2.5440924837019887,S 114th St & Cornell Ave S
430,Seattle,S,SEA,YES,13N 14 17EN 1N 2 36 3N 4 40N 62N 7 70N,0,152.45942465828668,2.5409904109714447,3rd Ave & Pine St
8440,Seattle,N,SEA,YES,106 4 48 634N 7 9E,1,152.33205318594355,2.538867553099059,Rainier Ave S & S Walker St
20700,Seattle,S,SEA,YES,24 31 33,1,152.2827061703916,2.53804510283986,28th Ave W & W Blaine St
47263,Highline Community College,N,DES,YES,165,1,151.91609285642602,2.5319348809404336,Highline College AcRd & S 240th St
67026,Bellevue,W,BEL,YES,212 245,0,151.82812053116274,2.530468675519379,SE 36th St & 136th Pl SE
84264,Unknown,S,BEL,UNK,241 249,0,151.8060793563858,2.5301013226064297,South Bellevue Stn Main AcRd & 112th Ave SE
19790,Seattle,N,SEA,YES,128 22 773 C,1,151.48976603728667,2.524829433954778,California Ave SW & Fauntleroy Way SW
74450,Bellevue,N,KIR,YES,249 250 255 981EN 986EN,2,151.09344502423798,2.5182240837373,NE 37th Ct & 107th Ln NE
24360,Seattle,E,SEA,YES,24 33,0,150.98629035769417,2.516438172628236,W Government Way & 34th Ave W
47320,Des Moines,N,DES,YES,165,0,150.91137674285756,2.515189612380959,Marine View Dr S & S 240th St
62079,Maple Valley,E,MV,YES,168,1,150.8046331633193,2.513410552721988,SE 264th St & 242nd Ave SE
3883,Seattle,S,SEA,YES,36,0,150.55359377197044,2.509226562866174,Beacon Ave S & S Columbian Way
35600,Seattle,E,SEA,YES,45,0,150.23669917618972,2.5039449862698286,NW 85th St & 15th Ave NW
79560,King County,N,KC,YES,101 102,1,150.19613414960182,2.5032689024933634,Martin L King Jr Way S & S 129th St
80322,State Dept. of Transportation,N,RNT,YES,111,1,150.14434099944447,2.5024056833240746,I-405 Ramp & NE 30th St
12550,Seattle,N,SEA,YES,4 48 8,1,149.8539091245206,2.4975651520753437,23rd Ave S & S Jackson St
75408,Seattle,S,SEA,YES,E,2,149.67413607387365,2.494568934564561,Aurora Ave N & N 46th St
70220,Kirkland,N,KIR,YES,225 230 231 257,0,149.6470761844192,2.4941179364069868,100th Ave NE & NE 132nd St
29225,Seattle,E,SEA,YES,44,1,149.44459634975735,2.4907432724959557,N 46th St & Phinney Ave N
2010,Seattle,S,SEA,YES,1,0,149.36836045310153,2.489472674218359,10th Ave W & W Armour St
619,Seattle,N,SEA,YES,124N 131N 132N 17E 21N 24 28E 33 40 5,3,149.33104697851923,2.4888507829753204,4th Ave S & S Jackson St
98105,Seattle,E,SEA,YES,7,0,149.21021000572475,2.486836833428746,Virginia St & 4th Ave
30140,Seattle,W,SEA,YES,106 107 9E,1,149.190948820454,2.486515813674233,S Henderson St & Rainier Ave S
41900,Seattle,N,SEA,YES,60 9E,1,149.03506478866726,2.4839177464777875,12th Ave S & S Jackson St
68200,Bellevue,E,BEL,YES,221 226,1,148.9959658637505,2.4832660977291754,NE 8th St & 156th Ave NE
21104,King County,S,KC,YES,128 131,0,148.97105782472136,2.482850963745356,8th Ave SW & SW 99th St
46770,King County,N,KC,YES,118,1,148.9159430048967,2.4819323834149447,Vashon Hwy SW & SW Burton Dr
85964,King County,W,KC,YES,183,0,148.91381849836836,2.481896974972806,S 288th St & 45th Pl S
8402,Seattle,W,SEA,YES,48 634N 8 987EN,2,148.79662597871075,2.479943766311846,Mt. Baker Transfer Area AcRd & Martin L King Jr Way S
69126,Bellevue,W,BEL,YES,249,0,148.68415108498345,2.478069184749724,SE 34th St & 111th Ave SE
68355,Bellevue,S,BEL,YES,250,0,148.18648080226998,2.469774680037833,116th Ave NE & Northup Way
41970,Seattle,N,SEA,YES,43 60 636N 96N 9E,0,148.1679246330979,2.469465410551632,Broadway & E Pine St
1110,Seattle,W,SEA,YES,10 11 12 3 49,0,148.02379696574533,2.4670632827624224,Pine St & 5th Ave
58079,Kent,E,KNT,YES,161,0,147.90170359147797,2.4650283931912993,S 212th St & 64th Ave S
47255,King County,W,KC,YES,118,0,146.76491098118933,2.4460818496864887,SW Tahlequah Rd & SR 163fy
23895,Seattle,S,SEA,YES,372E,0,146.6504590221552,2.44417431703592,25th Ave NE & NE 75th St
16430,Seattle,E,SEA,YES,45 62 79 987EN 988EN,1,146.59502937842123,2.443250489640354,NE 65th St & Roosevelt Way NE
46541,Renton,N,RNT,YES,240 566E F,1,146.4903788074035,2.441506313456725,Southport Dr N & Garden Ave N
60900,SeaTac,N,STC,YES,161 A,1,146.48934529050567,2.4414890881750946,International Blvd & S 176th St
84263,Unknown,S,BEL,UNK,550E 556E,0,146.34264762187632,2.439044127031272,South Bellevue Stn Main AcRd & 112th Ave SE
70702,King County,N,SHL,YES,331,1,145.96563541442112,2.4327605902403517,3rd Ave NW & NW Richmond Beach Rd
60320,Renton,W,RNT,YES,160 906,0,145.85413893557995,2.4309023155929994,SE Carr Rd & 108th Ave SE
59740,Renton,W,RNT,YES,148,1,145.8336159519986,2.4305602658666436,SE Royal Hills Dr & Gem Dr SE
57452,Sound Transit,N,KNT,NO,153 161 165 168 183,0,145.7748778469573,2.4295812974492885,Kent Sounder Station AcRd & E Pioneer St
81665,Sammamish,N,SAM,YES,269 554E,0,145.46699544989235,2.4244499241648727,228th Ave NE & NE 8th St
22710,Seattle,N,SEA,YES,21 21E,1,145.2500667769548,2.4208344462825804,35th Ave SW & SW Morgan St
3700,Seattle,S,SEA,YES,36 60,1,145.09357807202815,2.418226301200469,12th Ave S & S Jackson St
16103,Shoreline,E,SHL,YES,303 331 E,1,145.0177127397852,2.41696187899642,Aurora Village TC AcRd & Ashworth Ave N
3484,Seattle,N,SEA,YES,36 60,1,144.62804725244104,2.4104674542073505,Beacon Ave S & 15th Ave S
77630,King County,S,SHL,YES,348,0,144.62652381741822,2.4104420636236368,15th Ave NE & NE 155th St
82167,Seattle,N,SEA,YES,67,0,144.60657085757484,2.410109514292914,Roosevelt Way NE & NE 92nd St
80720,Tukwila,S,TUK,YES,150,2,144.38827222533448,2.4064712037555744,Interurban Ave S & 52nd Ave S
52301,Burien,N,BUR,YES,161 165,0,144.17258803604756,2.4028764672674594,Burien TC AcRd & SW 148th St
46092,Seattle,E,SEA,YES,36,0,144.11261443304613,2.4018769072174355,S Myrtle St & Beacon Ave S
10500,Seattle,E,SEA,YES,79,0,143.96088519897108,2.399348086649518,NE 55th St & 35th Ave NE
64465,Issaquah,E,ISS,YES,269,0,143.9505311479723,2.399175519132872,SE 56th St & East Lake Sammamish Pkwy SE
18085,Seattle,S,SEA,YES,44,2,143.51446062999685,2.391907677166614,32nd Ave NW & NW 54th St
41390,Seattle,N,SEA,YES,13N 4N,0,143.11910505430242,2.3853184175717073,3rd Ave W & W Dravus St
12805,Seattle,W,SEA,YES,193E 3 303 4,0,143.06300552662708,2.384383425443785,E Jefferson St & 18th Ave
70814,Bellevue,W,BEL,YES,240 246,0,143.05876758622088,2.3843127931036814,SE 8th St & 114th Ave SE
47390,Des Moines,N,DES,YES,165 635,1,142.98654334038255,2.3831090556730428,Marine View Dr S & S 223rd St
84292,Bellevue,N,BEL,YES,241 249 550E 556E,0,142.97972261781928,2.3829953769636547,Bellevue Way SE & 112th Ave SE
79874,Bellevue,E,BEL,YES,212 245,0,142.75130112682942,2.3791883521138235,SE 36th St & 136th Pl SE
75310,King County,W,KC,YES,333 365,0,142.64798372100037,2.377466395350006,NE 145th St & 5th Ave NE
46840,King County,N,KC,YES,118 119,0,142.57426778093014,2.376237796348836,Vashon Hwy SW & SW Bank Rd
17698,Seattle,W,SEA,YES,345 365 40 61,0,142.08113861728708,2.368018976954785,N 92nd St & Corliss Ave N
39976,Seattle,S,SEA,YES,125 60,0,142.07945677561327,2.367990946260221,25th Ave SW & SW Trenton St
9134,Seattle,S,SEA,YES,75 79,1,142.07166311158178,2.3678610518596965,University Way NE & NE 43rd St
34690,Seattle,N,SEA,YES,50,0,142.06181739256547,2.367696956542758,Seward Park Ave S & Wilson Ave S
59310,Tukwila,S,TUK,YES,F,0,141.96920482636105,2.3661534137726843,Andover Park W & Baker Blvd
8210,Seattle,N,SEA,YES,7 9E,1,141.87464262965784,2.364577377160964,Rainier Ave S & S Graham St
80515,Redmond,N,KIR,YES,225,1,141.67760818009063,2.361293469668177,132nd Ave NE & NE 117th St
14090,Seattle,N,SEA,YES,32 D,0,141.59314852170286,2.3598858086950476,Elliott Ave W & W Galer St
43020,Seattle,W,SEA,YES,345,0,141.58898269032562,2.3598163781720936,N 130th St & Meridian Ave N
10860,Seattle,W,SEA,YES,65 75,1,141.3810020436564,2.35635003406094,NE 125th St & 35th Ave NE
590,Seattle,N,SEA,YES,124N 131N 132N 17E 21EN 21N 24 27 28E 33 40 5 56 57 62 HN,0,141.34616541733683,2.3557694236222804,3rd Ave & Pine St
3930,Seattle,E,SEA,YES,4,1,141.27353922596316,2.354558987099386,Boston St & Queen Anne Ave N
36155,Seattle,N,SEA,YES,125,1,141.15655999825967,2.352609333304328,16th Ave SW & SW Findlay St
24260,Seattle,N,SEA,YES,24,1,140.77548185941043,2.3462580309901737,34th Ave W & W McGraw St
29257,Seattle,S,SEA,YES,43 48,1,140.55030119907642,2.342505019984607,23rd Ave E & E Thomas St
71331,Bellevue,S,RED,YES,221 249 B,1,140.54244771106949,2.342374128517825,152nd Ave NE & Overlake P&R AcRd
21080,King County,E,SEA,YES,113 128 60,1,140.5360873831525,2.3422681230525417,SW Roxbury St & 15th Ave SW
41902,Seattle,N,SEA,YES,43 630 9E,1,140.45659889809832,2.3409433149683054,Boren Ave & E Yesler Way
67013,Bellevue,E,BEL,NO,212 218 554E 556E 634N 636N 989EN,0,140.32279000413047,2.338713166735508,I-90 Expr Ramp & 142nd Pl SE
62139,State Dept. of Transportation,W,COV,YES,168,0,139.79987916991882,2.329997986165314,SE 272nd St & 164th Ave SE
22152,Seattle,S,SEA,YES,H,1,139.797976207769,2.3299662701294834,Delridge Way SW & SW Myrtle St
18220,Seattle,E,SEA,YES,13 31 32 4,1,139.76360848649568,2.329393474774928,W Nickerson St & 3rd Ave W
12497,Seattle,N,SEA,YES,4 8,1,139.5564085114438,2.3259401418573966,Martin L King Jr Way S & S Massachusetts St
21945,Metro King County,S,KNT,YES,165,2,139.4685667503204,2.32447611250534,Kent-Des Moines P&R AcRd & Military Rd S
46819,King County,S,KC,YES,119,0,139.23638262322473,2.3206063770537453,75th Ave SW & SW 256th St
46880,King County,N,KC,YES,118 119,0,138.88317322483798,2.3147195537472998,Vashon Hwy SW & SW 156th St
57429,Kent,W,KNT,YES,165,0,138.7035459955881,2.311725766593135,SE 240th St & 104th Ave SE
27350,Seattle,W,SEA,YES,27,1,138.58805536020543,2.3098009226700906,E Yesler Way & 23rd Ave
23390,Seattle,S,SEA,YES,67,1,138.46008478613987,2.3076680797689977,Roosevelt Way NE & NE 75th St
21141,Seattle,S,SEA,YES,113 60,2,138.15714383017803,2.3026190638363007,Olson-Myers Way P&R AcRd & Olson-Myers Way P&R AcRd
9900,Seattle,S,SEA,YES,62 75,1,137.97279617464153,2.2995466029106924,Sand Point Way NE & NE 74th St
16280,King County,S,SHL,YES,346,0,137.6711362928485,2.2945189382141415,Meridian Ave N & N 163rd St
9147,Seattle,N,SEA,YES,67,1,137.65557381947215,2.294259563657869,Brooklyn Ave NE & NE Campus Pkwy
13200,Seattle,S,SEA,YES,12,1,137.33611570082394,2.288935261680399,19th Ave E & E Galer St
1120,Seattle,W,SEA,YES,10 11 12 162N 3N 49,0,137.32685697200222,2.28878094953337,Pine St & 4th Ave
76302,Bothell,W,BOT,YES,372E 522E,1,137.29456200631927,2.288242700105321,Woodinville Dr & Kaysner Way
48630,Normandy Park,S,NP,YES,165,0,137.16611572746478,2.2861019287910795,1st Ave S & SW Normandy Rd
8541,Unknown,E,SEA,UNK,106 14 7,0,137.01273125988507,2.2835455209980844,S Jackson St & 12th Ave S
79234,Kent,N,KNT,YES,150,1,136.78442207405902,2.2797403679009838,68th Ave S & S 228th St
18120,Seattle,E,SEA,YES,17E 40 44,2,136.58151879213446,2.2763586465355745,NW Market St & Ballard Ave NW
59860,Renton,N,RNT,YES,102 160 566E F,1,136.5722760140842,2.2762046002347365,Rainier Ave S & S 7th St
79570,King County,S,KC,YES,101 102,1,136.47410691796802,2.2745684486328,Martin L King Jr Way S & S 129th St
35790,Seattle,S,SEA,YES,45,0,136.37199281949307,2.272866546991551,15th Ave NE & NE 52nd St
3810,Seattle,S,SEA,YES,107 36 60,1,136.32046511224178,2.2720077518706963,Beacon Ave S & S Lander St
28030,Seattle,S,SEA,YES,28E,1,136.31052664610735,2.2718421107684557,8th Ave NW & NW 97th St
50330,Des Moines,E,DES,YES,156,0,136.1698591811846,2.269497653019743,S 200th St & Des Moines Memorial Dr S
10912,Seattle,S,SEA,YES,271 372E 43 44 48 49 542E 556E 70,2,136.1101375112273,2.268502291853788,15th Ave NE & NE 43rd St
75884,King County,W,SHL,YES,333,0,136.06371397271738,2.2677285662119564,N 175th St & Meridian Ave N
40073,Unknown,N,SEA,UNK,31 33,0,136.03718917203872,2.2672864862006454,Gilman Ave W & W Emerson Pl
5550,Seattle,S,SEA,YES,345 5,0,135.81618813338002,2.2636031355563335,Greenwood Ave N & N 145th St
61467,Federal Way,N,FDY,YES,182,0,135.7021433647206,2.26170238941201,9th Ave S & S 348th St
40068,Seattle,E,SEA,YES,40,1,135.6880329025606,2.2614672150426767,N Northgate Way & Aurora Ave N
73816,Kirkland,S,KIR,NO,250 255,0,135.63301892367886,2.2605503153946476,3rd St & Park Ln
12910,Seattle,S,SEA,YES,193E 3 4 60,1,135.50916439763287,2.258486073293881,9th Ave & Jefferson St
81755,Redmond,N,RED,YES,250 269 545E 982EN,1,135.22429392315243,2.2537382320525405,Bear Creek P&R AcRd & 178th Pl NE
80004,Kent,E,KNT,YES,165,0,135.20259603985738,2.2533766006642897,S 232nd Pl & Lakeside Blvd E
67015,Bellevue,W,BEL,YES,212 221 226 240 241 245 246 271 989EN,0,134.79781352078498,2.2466302253464163,Eastgate P&R AcRd & 140th Ave SE
62173,Kent,N,KNT,YES,165,0,134.71953234022922,2.2453255390038205,132nd Ave SE & SE 256th St
3470,Seattle,N,SEA,YES,36 60,1,134.52200068380438,2.242033344730073,Beacon Ave S & S Lander St
431,Seattle,S,SEA,YES,21 21E 56 57 C DN EN,0,134.51866622580405,2.2419777704300676,3rd Ave & Pike St
75414,University of Washington,N,SEA,YES,372E 75,1,134.45153359893249,2.2408588933155413,East Stevens Way NE & Benton Ln
46776,King County,N,KC,YES,119,0,134.04013654771748,2.2340022757952913,Dockton Rd SW & SW Ellisport Rd
74721,Kirkland,S,KIR,YES,225 257 930,3,133.95641405448072,2.232606900908012,Kingsgate P&R AcRd & 116th Way NE
72984,Bellevue,N,BEL,YES,221 226 245 271,0,133.82707264455803,2.230451210742634,Kelsey Creek Rd & Tye River Rd
38235,Seattle,S,SEA,YES,522E,1,133.68042619351647,2.2280071032252744,Lake City Way NE & 20th Ave NE
85725,Bellevue,E,BEL,YES,240,0,133.6058143081342,2.2267635718022367,NE 4th St & 110th Ave NE
3800,Seattle,S,SEA,YES,36 60,0,133.42920426050173,2.223820071008362,Beacon Ave S & S Bayview St
61330,Federal Way,E,FDY,YES,181 187,0,133.37497227299764,2.2229162045499606,S 320th St & Pacific Hwy S
12485,Seattle,W,SEA,YES,4,1,133.1916114173857,2.219860190289762,S Walker St & 25th Ave S
15140,Seattle,E,SEA,YES,21,1,132.87815217813707,2.2146358696356176,SW Spokane St & 26th Ave SW
30970,Seattle,S,SEA,YES,107,0,132.8341197485055,2.213901995808425,Beacon Ave S & S Myrtle St
12880,Seattle,W,SEA,YES,193E 3 303 322 4,0,132.77360906086008,2.212893484347668,Jefferson St & 9th Ave
570,Seattle,N,SEA,YES,113 124N 131N 132N 17E 21EN 21N 24 27N 28E 33 40 5 56N 57N 62 HN,3,132.71578655249482,2.2119297758749137,3rd Ave & Union St
46792,King County,S,KC,YES,118 119,0,132.62078467921643,2.2103464113202738,Vashon Hwy SW & SW 204th St
80710,Tukwila,N,TUK,YES,150 193E,2,132.56212437542334,2.209368739590389,Interurban Ave S & 52nd Ave S
59316,Tukwila,N,TUK,YES,128 150,0,132.00908633244637,2.2001514388741064,Andover Park W & Baker Blvd
25240,Seattle,S,SEA,YES,255 44 988EN,2,131.93307729652432,2.1988846216087388,Montlake Blvd NE & NE Pacific Pl
76830,State Dept. of Transportation,N,LFP,YES,322 331 372E,1,131.6513478887409,2.194189131479015,Bothell Way NE & Ballinger Way NE
73419,Redmond,W,RED,YES,245 269,0,131.4995200633165,2.1916586677219416,NE 51st St & SR 520 Ramp
72015,Redmond,W,RED,YES,225 245,1,131.1283403573658,2.18547233928943,NE Old Redmond Rd & 148th Ave NE
2180,Seattle,S,SEA,YES,1 13 2 32 8,1,131.11263402068917,2.1852105670114863,Queen Anne Ave N & W Harrison St
24250,Seattle,S,SEA,YES,24 31,0,130.72356980305256,2.1787261633842094,34th Ave W & W McGraw St
46504,Unknown,W,RNT,UNK,F,0,130.70181230540646,2.178363538423441,N 10th St & Garden Ave N
71954,Redmond,W,RED,YES,545E,0,130.57600557792264,2.176266759632044,NE 83rd St & 161st Ave NE
14200,Seattle,N,SEA,YES,17E D,0,130.35427125262652,2.172571187543775,15th Ave NW & NW Leary Way
2995,Seattle,W,SEA,YES,2,0,130.3325393981757,2.172208989969595,E Union St & 23rd Ave
10914,Seattle,S,SEA,YES,271 372E 43 44 48 49 542E 556E 70,1,130.31273298438762,2.171878883073127,15th Ave NE & NE Campus Pkwy
75110,King County,S,SHL,YES,333 5,1,130.17736489730171,2.169622748288362,Dayton Ave N & N 160th St
21990,Seattle,S,SEA,YES,125 50 H,1,129.95406021564588,2.165901003594098,Delridge Way SW & SW Andover St
58782,State Dept. of Transportation,W,KNT,YES,162 193E,2,129.8097519656991,2.163495866094985,I-5 Ramp & Military Rd S
79520,Renton,W,RNT,YES,101 102 107,1,129.5575837519612,2.159293062532687,SW Sunset Blvd & Rainier Ave S
62198,Kent,W,KNT,YES,160 162 168,1,129.24811635594347,2.1541352725990577,SE 256th St & 101st Ave SE
22850,Seattle,W,SEA,YES,50 773,1,129.2111111111111,2.1535185185185184,SW Alaska St & 35th Ave SW
71210,Redmond,W,RED,YES,249 895EN,0,129.0559748107346,2.1509329135122432,NE 24th St & 186th Ave NE
46464,Renton,N,RNT,YES,106,1,128.82535486603206,2.147089247767201,Burnett Ave S & Renton TC AcRd
39890,Seattle,E,SEA,YES,22,0,128.7550301289529,2.145917168815882,SW Thistle St & 41st Ave SW
75460,King County,N,SHL,YES,333 5,0,128.53815236896867,2.1423025394828112,Dayton Ave N & N 160th St
58132,Tukwila,E,TUK,YES,150 906,1,128.5191873880048,2.141986456466747,S 180th St & Sperry Dr
74234,Kirkland,N,KIR,YES,225 239 930,0,128.3484166497833,2.1391402774963884,Totem Lake Transit Center AcRd & NE 128th St
22820,Seattle,N,SEA,YES,21 21E 50 773N C,2,128.18979253627387,2.136496542271231,35th Ave SW & SW Avalon Way
8110,Seattle,N,SEA,YES,7 9E,1,128.14041952661447,2.135673658776908,Rainier Ave S & S Rose St
58088,Tukwila,W,TUK,YES,150 906,1,128.11439977929368,2.135239996321561,S 180th St & Sperry Dr
76710,Seattle,S,SEA,YES,322 372E 522E 61,2,128.08026502624512,2.134671083770752,Lake City Way NE & NE 125th St
31132,Seattle,E,SEA,YES,106 107,1,127.8938026359505,2.1315633772658416,S Henderson St & Martin L King Jr Way
81420,King County,N,KIR,YES,239 257,0,127.84503765770025,2.1307506276283372,124th Ave NE & NE 144th St
60922,Tukwila,W,TUK,NO,124N 128 A F,0,127.78880050700552,2.1298133417834255,Tukwila LLR AcRd & Tukwila LLR AcRd
82280,State Dept. of Transportation,W,LFP,YES,331,0,127.29267965351363,2.1215446608918938,Ballinger Way NE & NE 175th St
25797,Seattle,N,SEA,YES,372E,0,127.27441374593134,2.1212402290988557,25th Ave NE & NE 75th St
99253,Metro King County,S,SEA,YES,101 102 150 177 50,1,126.8220368539293,2.113700614232155,SODO Busway AcRd & S Spokane St
17010,Seattle,S,SEA,YES,345 365 40,1,126.66128787974182,2.1110214646623637,College Way N & N 97th St
60482,Kent,N,KNT,YES,162 165,1,126.5940272986596,2.10990045497766,132nd Ave SE & SE Kent-Kangley Rd
39790,Seattle,S,SEA,YES,22,2,125.99788207338322,2.099964701223054,California Ave SW & Fauntleroy Way SW
17695,Seattle,E,SEA,YES,345 365,0,125.77484244861826,2.096247374143638,North Seattle College AcRd & College Way N
59176,Auburn,S,AUB,YES,181,0,125.68766543762388,2.094794423960398,M St NE & 4th St NE
61462,Federal Way,E,FDY,YES,182,0,125.61442453263709,2.093573742210618,SW 356th St & 14th Ave SW
61999,Tacoma,N,TAC,YES,182,0,125.41182152409749,2.0901970254016247,49th Ave NE & 42nd St NE
16680,King County,N,SHL,YES,303 346,0,125.30810070251664,2.088468345041944,Meridian Ave N & N 175th St
82780,State Dept. of Transportation,N,BEL,YES,111,0,124.91878170616513,2.0819796951027523,I-405 Ramp & Lake Washington Blvd SE
72420,Redmond,E,RED,YES,221,0,124.89018736261407,2.0815031227102345,NE Old Redmond Rd & 148th Ave NE
60800,Des Moines,N,DES,YES,A,1,124.67805324629751,2.0779675541049585,Pacific Hwy S & Kent Des Moines Rd
2640,Seattle,S,SEA,YES,13 2,0,124.67299416275668,2.0778832360459445,Queen Anne Ave N & W Lee St
67595,Bellevue,E,BEL,YES,226 250,1,124.62786776677186,2.077131129446198,NE 10th St & 116th Ave NE
57453,Sound Transit,N,KNT,NO,160 161 168 183 566E,0,124.54752959811997,2.075792159968666,Kent Sounder Station AcRd & E Pioneer St
81677,Sammamish,S,SAM,YES,269 554E,1,124.35250346662048,2.0725417244436746,228th Ave NE & NE 8th St
47570,Normandy Park,N,NP,YES,165,1,124.05752947704747,2.0676254912841245,1st Ave S & S Normandy Rd
49110,Des Moines,W,DES,YES,156,0,124.05074229992842,2.0675123716654737,S 200th St & Des Moines Memorial Dr S
72983,Bellevue,S,BEL,YES,221 226 245 271,1,124.04495149521239,2.06741585825354,Kelsey Creek Rd & Tye River Rd
55651,Seattle,N,SEA,YES,106,1,124.01536458721527,2.0669227431202546,Martin L King Jr Way S & S Othello St
515,Seattle,S,SEA,YES,124 131 132 13N 14 17E 1N 21 24 2N 33 36 3N 40 49N 4N 7 70N DN EN,1,123.98516784292453,2.066419464048742,3rd Ave S & S Main St
60457,Kent,S,KNT,YES,165,0,123.78096186587487,2.0630160310979146,132nd Ave SE & SE 268th St
48346,King County,S,KC,YES,131,1,123.76656031263418,2.0627760052105697,1st Ave S & SW 112th St
81684,King County,E,SAM,YES,269 554E,1,123.67623292858023,2.0612705488096705,S Sammamish P&R AcRd & SE 30th St
54002,King County,N,KC,YES,111,0,123.43284168211163,2.057214028035194,Lake Kathleen Rd SE & SE 128th St
45191,Renton,S,RNT,YES,240 566E,1,123.35187679642615,2.0558646132737692,Southport Dr N & Lake Washington Blvd N
77400,King County,S,SHL,YES,333,1,123.1985824745366,2.053309707908943,15th Ave NE & Ballinger Way NE
76595,State Dept. of Transportation,S,LFP,YES,322 372E 522E,1,123.1373084405753,2.0522884740095884,Bothell Way NE & Brookside Blvd NE
8090,Seattle,N,SEA,YES,7,1,123.01736111111111,2.050289351851852,Rainier Ave S & S Henderson St
3430,Seattle,N,SEA,YES,36,1,122.98132303544864,2.049688717257477,Beacon Ave S & S Spokane St
62133,Covington,S,COV,YES,168,0,122.86649169941379,2.0477748616568965,SE Wax Rd & SE 272nd St
42500,Federal Way,S,FDY,YES,181,0,122.70891715461494,2.0451486192435824,21st Ave SW & SW 320th St
30340,Seattle,N,SEA,YES,36,1,122.59756248124772,2.0432927080207954,Beacon Ave S & S Myrtle St
64545,Issaquah,S,ISS,YES,269,1,122.26288495089796,2.0377147491816325,Issaquah Highlands P&R AcRd & 9th Ave NE
99750,Bellevue,S,BEL,YES,246,0,122.25387090392736,2.037564515065456,123rd Ave SE & SE 20th Pl
56872,King County,E,KC,YES,111,0,121.94683309063548,2.032447218177258,SE 144th St & 167th Pl SE
71335,State Dept. of Transportation,S,RED,NO,542E 545E 566E,2,121.81904015028256,2.030317335838043,SR 520 Ramp & NE 40th St
47416,Private Owner,W,DES,YES,165,0,121.78218186922486,2.0297030311537476,Wesley Terrace AcRd & S 216th St
9560,Seattle,N,SEA,YES,70,1,121.65162783492757,2.027527130582126,Eastlake Ave E & Harvard Ave E
65287,Newcastle,W,NEW,YES,240,0,121.43263764765267,2.0238772941275447,Newcastle Way & 132nd Pl SE
11910,Seattle,W,SEA,YES,14,0,121.42570231096896,2.023761705182816,S Jackson St & 23rd Ave S
47175,King County,S,KC,YES,119,0,121.26031782436539,2.0210052970727563,SW Ellisport Rd & Dockton Rd SW
420,Seattle,S,SEA,YES,124 131 132 13N 14 17EN 1N 2 21 21E 24N 27 33N 4 40N 56 57 62N C DN EN H,2,121.21090576939078,2.0201817628231797,3rd Ave & Virginia St
3155,Seattle,E,SEA,YES,2,1,121.16611304801195,2.019435217466866,E Union St & Broadway
11070,Seattle,S,SEA,YES,43 49 60 636N 9E,2,120.92349597581767,2.015391599596961,Broadway & E Pine St
62104,Covington,N,COV,YES,168,0,120.77739515657002,2.0129565859428338,Timberlane Way SE & SE 267th St
66880,Bellevue,E,BEL,YES,221,0,120.34969508175493,2.005828251362582,SE 14th St & 165th Ave SE
1690,Seattle,N,SEA,YES,1 13 2 24 33 4 D,1,120.33419394597664,2.0055698990996107,3rd Ave & Vine St
17022,Seattle,E,SEA,YES,345 365 40 61,0,120.32722819511531,2.005453803251922,N 92nd St & Corliss Ave N
52304,Burien,N,BUR,YES,131 132 F H,0,120.32528793269907,2.0054214655449845,Burien TC AcRd & SW 148th St
75790,Shoreline,S,SHL,YES,E,1,119.6458520825439,1.994097534709065,Aurora Ave N & N 160th St
2940,Seattle,W,SEA,YES,2 988EN,1,119.43449067360439,1.990574844560073,E Union St & 33rd Ave
81472,King County,N,BOT,YES,257,0,119.42783736978863,1.9904639561631439,119th Ave NE & NE 159th St
16860,Seattle,S,SEA,YES,345 365,0,119.38686070591386,1.989781011765231,Meridian Ave N & N 130th St
60459,Kent,W,KNT,YES,162 168,1,119.33428693332114,1.988904782222019,SE Kent-Kangley Rd & 132nd Ave SE
60923,Tukwila,W,TUK,NO,124 128 F,0,119.25328892330184,1.987554815388364,Tukwila LLR AcRd & Tukwila LLR AcRd
57119,Kent,W,KNT,YES,165,0,119.24023121902839,1.9873371869838066,SE 240th St & 132nd Ave SE
9978,Seattle,S,SEA,YES,45 65 67 75,1,119.23018034697017,1.987169672449503,Sand Point Way NE & 40th Ave NE
30453,Federal Government,E,SEA,YES,50,0,119.18180961791084,1.9863634936318475,VA Hospital AcRd & S Oregon St
71850,Redmond,S,RED,YES,250,0,119.17344547643619,1.9862240912739364,Avondale Rd NE & NE 116th St
46479,Renton,E,RNT,YES,107 148 240 566E,1,119.09576700516638,1.9849294500861063,Renton TC AcRd & Burnett Ave S
46130,Seattle,E,SEA,YES,50,0,118.58439587723002,1.9764065979538337,S Othello St & 42nd Ave S
59400,Renton,E,RNT,YES,160 906,1,118.19848793155548,1.969974798859258,SE Carr Rd & 106th Pl SE
3150,Seattle,E,SEA,YES,193E 2,0,118.17664182772276,1.9696106971287126,Seneca St & 8th Ave
75881,Shoreline,N,SHL,YES,E,1,118.16991462586013,1.9694985770976687,Aurora Ave N & N 175th St
73350,Redmond,N,RED,YES,221 225 245 B,1,118.0517384807017,1.9675289746783617,148th Ave NE & NE 51st St
73059,Redmond,W,RED,YES,249 269 895EN,0,117.9666504413639,1.9661108406893983,NE 40th St & 156th Ave NE
9670,Seattle,E,SEA,YES,65 75,1,117.94004441012801,1.965667406835467,NE 125th St & Lake City Way NE
25110,Seattle,S,SEA,YES,65,1,117.76500728058761,1.9627501213431269,35th Ave NE & NE 65th St
82700,State Dept. of Transportation,S,BOT,YES,239 311,1,117.52271500109681,1.958711916684947,I-405 SB Ent Ramp & Juanita Woodinville Way NE
57350,Kent,S,KNT,YES,160,1,117.29146586437405,1.9548577644062342,108th Ave SE & SE 208th St
68498,Redmond,N,RED,NO,245 B,1,117.26665628641142,1.9544442714401904,156th Ave NE & Redmond Tech Station AcRd
17960,Seattle,S,SEA,YES,17E,1,117.22711316031749,1.9537852193386247,32nd Ave NW & NW 85th St
23561,Seattle,N,SEA,YES,522E 67,1,117.0315619721504,1.9505260328691734,12th Ave NE & NE 67th St
68007,Bellevue,N,BEL,NO,246 249 550E,0,117.01623897530392,1.9502706495883986,108th Ave NE & NE 6th St
35318,Seattle,S,SEA,NO,322 345 348 365 40 61,0,116.9666907145636,1.9494448452427267,Northgate Station AcRd & NE 103rd St
7950,Seattle,S,SEA,YES,7,0,116.62654052268743,1.943775675378124,62nd Ave S & S Prentice St
60161,King County,W,KC,YES,148 906,1,116.58380328176398,1.9430633880293997,SE 177th St & 140th Ave SE
19670,Seattle,N,SEA,YES,C,2,116.38093857556798,1.9396823095927997,Fauntleroy Way SW & SW Barton St
12780,Seattle,W,SEA,YES,3 4,1,115.92537060918741,1.9320895101531235,E Jefferson St & 23rd Ave
99252,Metro King County,N,SEA,YES,101 102 150 177 50,1,115.57647022884538,1.9262745038140896,SODO Busway AcRd & S Spokane St
10911,Seattle,E,SEA,YES,31 32 372E 43 44 48 49 70,0,115.57247398790662,1.9262078997984438,NE 45th St & University Way NE
47080,King County,S,KC,YES,118 119,0,115.5227563617954,1.92537927269659,Vashon Hwy SW & SW 156th St
11132,Seattle,E,SEA,YES,10 11 12 3 49,1,115.47789405483489,1.9246315675805816,Pike St & Boren Ave
29249,Seattle,S,SEA,YES,43 48,1,115.42845528455285,1.923807588075881,24th Ave E & Boyer Ave E
76770,State Dept. of Transportation,N,LFP,YES,322 372E 522E,1,115.32794636986964,1.9221324394978272,Bothell Way NE & NE 145th St
74041,Redmond,N,RED,YES,221,0,114.8460560792905,1.9141009346548417,Redmond Woodinville Rd NE & NE 109th St
25000,Seattle,S,SEA,YES,65,1,114.41673334536452,1.9069455557560753,35th Ave NE & NE 94th St
64502,Issaquah,W,ISS,YES,554E,1,114.39495056472784,1.9065825094121307,E Sunset Way & 1st Ave NE
1610,Seattle,N,SEA,YES,1 13 14N 2N 36N 3N 4N 70 7N D E,3,114.24641061922627,1.9041068436537711,Prefontaine Pl S & Yesler Way
99261,Metro King County,W,SEA,YES,50,0,114.11576765051042,1.9019294608418404,S Lander St & SODO Busway AcRd
18785,Seattle,W,SEA,YES,44,0,114.03704481792717,1.9006174136321194,NW Market St & 30th Ave NW
37130,Seattle,S,SEA,YES,128 775,1,113.79854136990474,1.896642356165079,California Ave SW & SW Hill St
41930,Seattle,N,SEA,YES,60,1,113.75993047148754,1.895998841191459,9th Ave & Alder St
74710,Kirkland,N,KIR,YES,239,0,113.57240627564398,1.8928734379273997,124th Ave NE & NE 116th St
39983,Seattle,W,SEA,YES,22 H,1,113.46921525142182,1.8911535875236969,SW Barton St & 25th Ave SW
76021,Bothell,E,BOT,YES,239,0,113.44006504684468,1.8906677507807446,E Riverside Dr & 102nd Ave NE
76372,State Dept. of Transportation,W,KEN,YES,225 322 331 372E 522E,4,113.41428629368525,1.890238104894754,NE Bothell Way & Kenmore P&R AcRd
32011,Seattle,W,SEA,YES,128 50,2,113.28029024197784,1.8880048373662972,SW Alaska St & 44th Ave SW
65252,Newcastle,E,NEW,YES,240,0,113.1970337068117,1.8866172284468616,Newcastle Way & Coal Creek Pkwy SE
39955,Seattle,E,SEA,YES,22,0,112.88759976039111,1.8814599960065186,SW Thistle St & 28th Ave SW
47403,Des Moines,W,DES,YES,156 635,1,112.87935598351984,1.8813225997253307,S 216th St & 24th Ave S
64555,Issaquah,N,ISS,NO,554E,0,112.80948556358003,1.8801580927263337,Issaquah TC AcRd & NW Maple St
61082,Port of Seattle,E,STC,YES,124,0,112.69643887725502,1.8782739812875837,SeaTac Airport AcRd & International Blvd
61080,SeaTac,S,STC,YES,161 A,1,112.54198173341902,1.8756996955569838,International Blvd & S 176th St
46818,King County,E,KC,YES,119,0,112.4451558175335,1.874085930292225,SW 256th St & 75th Ave SW
59312,Tukwila,S,TUK,YES,128 150 156 906,0,112.1669098929307,1.8694484982155117,Andover Park W & Baker Blvd
46365,King County,S,KC,YES,107,0,112.10389295652863,1.8683982159421437,87th Ave S & S 123rd St
29242,Seattle,E,SEA,YES,44N 65,1,112.0850096144624,1.8680834935743733,NE Pacific Pl & NE Pacific St
1480,Seattle,E,SEA,YES,106 14 36 554E 7,1,112.03986643030434,1.8673311071717391,S Jackson St & Maynard Ave S
79610,Renton,E,RNT,YES,101 102 107,2,111.71148955913677,1.861858159318946,SW Sunset Blvd & Hardie Ave SW
15190,Seattle,N,SEA,YES,21 50,1,111.60729708177493,1.860121618029582,1st Ave S & S Spokane St
83703,Federal Way,E,FDY,YES,181 187,1,111.49461963574964,1.8582436605958275,SW 320th St & 21st Ave SW
16419,Seattle,N,SEA,YES,79,0,111.20354706315553,1.853392451052592,8th Ave NE & NE 64th St
3380,Seattle,N,SEA,YES,36,1,111.17717064824147,1.852952844137358,Beacon Ave S & S Columbian Way
38910,Seattle,S,SEA,YES,348,1,110.9625407461517,1.8493756791025284,15th Ave NE & NE 125th St
41255,Seattle,S,SEA,YES,13 4,1,110.91194702460419,1.8485324504100697,3rd Ave W & W Dravus St
46769,State Dept. of Transportation,S,KC,YES,118 119,0,110.61280658458402,1.8435467764097337,Vashon Ferry Dock AcRd & 103rd Ave SW
59580,King County,W,KC,YES,148,0,110.40104815389216,1.840017469231536,SE Fairwood Blvd & 139th Pl SE
46890,King County,N,KC,YES,118 119,0,110.17660885198507,1.8362768141997512,Vashon Hwy SW & Burma Rd SW
57774,Sound Transit,S,AUB,NO,160 181 184 566E,0,110.08424520894238,1.8347374201490396,Auburn Sounder Station AcRd & 2nd St SW
75405,University of Washington,W,SEA,YES,372EN 45 67,1,110.07503887743835,1.834583981290639,West Stevens Way NE & George Washington Ln NE
22264,Seattle,S,SEA,YES,21E 22,0,110.01142100313488,1.8335236833855815,35th Ave SW & SW 97th St
45010,Renton,N,RNT,YES,111,1,109.89045790668935,1.8315076317781558,Monroe Ave NE & NE 4th St
70820,Bellevue,E,BEL,YES,240 246,0,109.81512121214362,1.8302520202023937,SE 8th St & 114th Ave SE
64590,Issaquah,S,ISS,NO,554E 556E,0,108.91344235479112,1.8152240392465187,Issaquah TC AcRd & Newport Way NW
13600,Seattle,S,SEA,YES,D,0,108.89687290356049,1.8149478817260083,15th Ave NW & NW 85th St
57901,Auburn,S,AUB,YES,160,0,108.89571330112912,1.8149285550188188,Auburn Way N & 15th St NE
75160,Seattle,E,KC,YES,333,1,108.62013888888889,1.810335648148148,N 145th St & Greenwood Ave N
68006,Bellevue,E,BEL,NO,566E,1,108.55761459642827,1.8092935766071379,Bellevue TC AcRd & 110th Ave NE
22560,Seattle,N,SEA,YES,21 21E C,1,108.46099526462051,1.8076832544103418,35th Ave SW & SW Roxbury St
81418,Kirkland,S,KIR,YES,239,1,108.34296496012843,1.805716082668807,124th Ave NE & NE 144th St
57902,Auburn,N,AUB,YES,160,0,108.1233812494431,1.802056354157385,Auburn Way N & 15th St NE
29261,Seattle,W,SEA,YES,11 43 8,0,107.96402152425183,1.7994003587375305,E John St & 15th Ave E
16570,Seattle,N,SEA,YES,365,0,107.8650755964182,1.7977512599403032,Meridian Ave N & N 145th St
10910,Seattle,S,SEA,YES,372E 48,1,107.85478373432973,1.7975797289054956,12th Ave NE & NE 47th St
5493,Shoreline Community College,W,SHL,YES,331 333,1,107.81878752118078,1.7969797920196797,Shoreline CC AcRd & Shoreline CC AcRd
70597,Kirkland,E,KIR,YES,893,0,107.79993686868687,1.7966656144781146,NE 100th St & 116th Ave NE
9690,Seattle,E,SEA,YES,65 75,1,107.50157550389817,1.7916929250649694,NE 125th St & 35th Ave NE
60902,SeaTac,E,STC,YES,156,1,107.23954726450353,1.7873257877417255,S 176th St & International Blvd
76590,State Dept. of Transportation,S,LFP,YES,322 372E,1,107.12951356753292,1.7854918927922154,Bothell Way NE & Ballinger Way NE
71460,Redmond,E,RED,YES,249 895EN,0,107.03391088305116,1.7838985147175195,NE 24th St & 186th Ave NE
13721,Seattle,S,SEA,YES,D,0,106.97467286462916,1.782911214410486,15th Ave NW & NW Market St
31920,Seattle,S,SEA,YES,128 50,1,106.06960035356278,1.7678266725593796,California Ave SW & SW Admiral Way
39464,Seattle,N,SEA,YES,57,0,105.75294518699691,1.7625490864499485,55th Ave SW & SW Dakota St
16800,Seattle,S,SEA,YES,365,0,105.66493418148869,1.7610822363581449,Meridian Ave N & N 145th St
1050,Seattle,E,SEA,YES,212 218 257 311 545E,0,105.58467612881304,1.759744602146884,Olive Way & 8th Ave
59881,Sound Transit,N,TUK,NO,906 F,0,105.38125597815976,1.7563542663026626,Tukwila Station AcRd & Longacres Way
16240,King County,S,SHL,YES,346,1,105.1306451585814,1.75217741930969,Meridian Ave N & N 175th St
38050,Seattle,S,SEA,YES,65,0,104.95356938064735,1.7492261563441225,30th Ave NE & NE 143rd St
19930,Seattle,N,SEA,YES,21 773 C,1,104.94496313168678,1.7490827188614462,SW Avalon Way & SW Yancy St
57775,Sound Transit,S,AUB,NO,181,0,104.73602509887806,1.7456004183146343,Auburn Sounder Station AcRd & 2nd St SW
9582,Seattle,N,SEA,YES,45 79,1,104.64961208291832,1.7441602013819721,University Way NE & NE 43rd St
15540,Seattle,W,SEA,YES,50 56 57 775,1,104.36894397127502,1.7394823995212503,SW Admiral Way & California Ave SW
79214,Kent,W,KNT,YES,150,0,104.30418408468753,1.7384030680781255,S 228th St & 68th Ave S
60185,King County,W,KC,YES,102 906,1,103.829359137787,1.7304893189631165,SE Petrovitsky Rd & 140th Ave SE
56649,Renton,W,RNT,YES,111,1,103.79365961160457,1.7298943268600762,NE 16th St & Edmonds Ave NE
79296,Unknown,E,BOT,UNK,372E 522E,0,103.50901280378835,1.7251502133964725,Bothell Way NE & Bothell Way NE
81456,King County,W,KIR,YES,257,0,103.09210837089798,1.7182018061816329,NE 144th St & 124th Ave NE
71951,Redmond,E,RED,YES,545E,0,103.04752964779244,1.7174588274632074,NE 83rd St & 164th Ave NE
28680,Seattle,N,SEA,YES,28E D,1,102.7559438434749,1.712599064057915,NW 100th Pl & 7th Ave NW
31910,Seattle,N,SEA,YES,128 50,0,102.19357426372412,1.7032262377287353,California Ave SW & SW Lander St
37090,Seattle,E,SEA,YES,128,1,102.05926769531273,1.7009877949218788,SW Atlantic St & 44th Ave SW
47419,Des Moines,E,DES,YES,156,0,102.04235104708656,1.7007058507847759,S 216th St & 24th Ave S
65323,Bellevue,W,BEL,YES,271,1,101.95717363127302,1.6992862271878837,SE Eastgate Way & 160th Ave SE
18440,Seattle,E,SEA,YES,40 554E C,0,100.84385221351594,1.6807308702252657,Blanchard St & 6th Ave
59842,Renton,W,RNT,YES,102 148 153 160,1,100.63022844307142,1.6771704740511904,Lake Ave S & Shattuck Ave S
1920,Seattle,W,SEA,YES,554E,0,100.4894824758911,1.6748247079315182,Lenora St & 4th Ave
43095,Private Owner,N,SEA,YES,345,0,100.04883057285966,1.667480509547661,Four Freedoms Home AcRd & Four Freedoms Home AcRd
15060,Seattle,E,SEA,YES,56 57,1,100.01454963051951,1.6669091605086586,SW Admiral Way & California Ave SW
38653,Seattle,W,SEA,YES,372E 61,1,100.00584048008024,1.6667640080013373,NE 130th St & 35th Ave NE
67636,Bellevue,S,BEL,YES,550E,0,99.99662316786262,1.6666103861310437,110th Ave NE & NE 10th St
55926,Renton,W,RNT,YES,F,2,99.99348127382223,1.6665580212303703,SW 7th St & Rainier Ave S
54146,Renton,N,RNT,YES,105,1,99.66069384876691,1.6610115641461152,Union Ave NE & NE 4th St
11190,Seattle,N,SEA,YES,49 60 9E,0,99.52446454607144,1.6587410757678573,Broadway E & E Harrison St
62329,Redmond,S,RED,YES,554E,0,99.23407138165936,1.6539011896943228,Redmond Way & 185th Ave NE
61460,Federal Way,E,FDY,YES,187 903,0,99.19002942410248,1.6531671570683746,SW 342nd St & 35th Ave SW
64561,Issaquah,E,ISS,YES,218 554E 556E,0,99.14737218162296,1.6524562030270493,Issaquah Highlands P&R AcRd & 9th Ave NE
29423,Seattle,N,SEA,YES,79,0,99.10348600860526,1.6517247668100876,Brooklyn Ave NE & NE Pacific St
47240,King County,S,KC,YES,118 119,0,98.82424310226502,1.6470707183710835,Vashon Hwy SW & SW Bank Rd
32120,Seattle,E,SEA,YES,132 60 987E,1,98.79761904761905,1.6466269841269843,S Cloverdale St & 8th Ave S
22557,Seattle,E,SEA,YES,21 C,1,98.63171736919115,1.6438619561531858,SW Barton St & 26th Ave SW
36960,Seattle,W,SEA,YES,45 62 79,2,98.5984778371042,1.6433079639517367,NE 65th St & Oswego Pl NE
12842,Seattle,N,SEA,YES,322,0,98.51308313798134,1.6418847189663557,12th Ave & E Terrace St
76660,Seattle,S,SEA,YES,322 372E 522E,1,98.50833329791503,1.6418055549652506,Lake City Way NE & NE 145th St
67014,Bellevue,W,BEL,YES,212 221 226 240 241 245 246 271 554E 556E 634N 636N 989EN,0,98.34362934777674,1.6390604891296123,Eastgate P&R AcRd & 140th Ave SE
31811,Seattle,E,SEA,YES,128 50 57 773,3,98.31409942465402,1.6385683237442337,SW Alaska St & 44th Ave SW
99263,Metro King County,S,SEA,YES,101 102 150 177 50,1,98.1815566587946,1.6363592776465767,SODO Busway AcRd & S Lander St
41890,Seattle,E,SEA,YES,107,0,98.18080504311418,1.6363467507185696,S Lander St & 15th Ave S
22380,Seattle,E,SEA,YES,21E 22,0,98.01204828511786,1.6335341380852977,SW 106th St & California Ave SW
22261,Seattle,W,SEA,YES,21 22,0,98.00804837000612,1.6334674728334353,SW Roxbury St & 30th Ave SW
58500,Auburn,N,AUB,YES,184,1,97.8278738025148,1.6304645633752466,F St SE & 29th St SE
69021,Bellevue,W,BEL,NO,250,0,97.26799925424262,1.6211333209040437,Bellevue TC AcRd & 108th Ave NE
37849,Seattle,W,SEA,YES,62 79,1,97.09093492561087,1.6181822487601811,NE 65th St & Sand Point Way NE
605,Seattle,N,SEA,YES,1 124 13 131 132 17E 2 24 28E 33 4 5 D E,2,96.83321259696662,1.6138868766161103,3rd Ave & Bell St
80433,Federal Way,W,FDY,NO,181 182 187,0,96.58928987761233,1.6098214979602055,Federal Way TC AcRd & 23rd Ave S
12980,Seattle,E,SEA,YES,193E 3 303 4,1,96.44000984231825,1.6073334973719708,E Jefferson St & 17th Ave
64140,Mercer Island,W,MI,NO,204 550E 554E 630 981E 989E,0,96.38061270424058,1.6063435450706762,N Mercer Way & 80th Ave SE
75304,Seattle,W,SEA,YES,981EN 982EN 986EN 987EN 988EN 989EN,0,96.37561741734278,1.6062602902890464,NE 135th St & 1st Ave NE
548,Seattle,N,SEA,YES,113N 124N 131N 132N 17E 21EN 21N 24 27N 28E 33 40 5 56N 57N 62 HN,0,96.2753089705797,1.604588482842995,3rd Ave & Madison St
9135,Seattle,S,SEA,YES,48,0,95.70254117801727,1.5950423529669544,University Way NE & NE 52nd St
36390,Seattle,N,SEA,YES,22,1,95.50499525217539,1.5917499208695898,44th Ave SW & SW Alaska St
8403,Seattle,W,SEA,YES,14,1,95.36520468825694,1.5894200781376155,Mt. Baker Transfer Area AcRd & Martin L King Jr Way S
55583,Seattle,N,SEA,YES,106 9E,1,95.19779968681502,1.5866299947802502,Martin L King Jr Way S & S Henderson St
45301,Renton,S,RNT,YES,101,1,95.1066650022923,1.5851110833715383,Burnett Ave S & S 2nd St
68001,Bellevue,W,BEL,NO,226 241 566E,0,95.07775259444415,1.5846292099074024,NE 6th St & 108th Ave NE
71961,Redmond,W,RED,YES,221 250 930 B,0,94.60306247014952,1.5767177078358254,NE 83rd St & 161st Ave NE
35530,Seattle,W,SEA,YES,45,1,94.49857212310327,1.5749762020517213,Loyal Way NW & NW 85th St
29243,Seattle,E,SEA,YES,44,0,94.32982036022364,1.572163672670394,NE Pacific Pl & NE Pacific St
481,Seattle,S,SEA,YES,125 21E 56 57 C H,0,93.97625193786446,1.5662708656310744,3rd Ave & Columbia St
31137,Seattle,E,SEA,YES,7,0,93.84090917800899,1.5640151529668165,S Henderson St & Rainier Ave S
57455,Sound Transit,S,KNT,NO,150 162,0,93.5861794731759,1.559769657886265,Railroad Ave N & E Pioneer St
64466,Issaquah,W,ISS,YES,269,0,93.43035322081678,1.5571725536802796,SE 56th St & East Lake Sammamish Pkwy SE
72882,Bellevue,E,BEL,YES,246,0,92.96639321447603,1.5494398869079338,Somerset Blvd SE & 143rd Ave SE
1471,Seattle,E,SEA,YES,1 106 13 14 2 3 36 4 49 7 70,3,92.88240965112604,1.5480401608521006,S Jackson St & 5th Ave S
55050,King County,N,KC,YES,106,1,92.84200160025686,1.5473666933376145,Renton Ave S & S 126th St
36680,Seattle,E,SEA,YES,50,0,92.81441967335756,1.5469069945559595,S Columbian Way & Beacon Ave S
2361,Unknown,E,SEA,UNK,32,0,92.79465306405521,1.5465775510675868,Republican St & 1st Ave N
58342,Auburn,W,AUB,YES,181 917,1,92.59029036002926,1.5431715060004876,15th St SW & Market St
2740,Seattle,N,SEA,YES,13 2,0,92.5750123827887,1.5429168730464784,Queen Anne Ave N & W Lee St
620,Seattle,N,SEA,YES,101N 102N 111N 150N 177N 212N 218N 545E 550EN 554EN,2,92.4906591439507,1.5415109857325116,4th Ave S & S Jackson St
54150,Renton,W,RNT,YES,105 111,0,92.26699433367938,1.5377832388946564,NE 4th St & Union Ave NE
46871,King County,S,KC,YES,118 119,0,92.23607709262535,1.537267951543756,Vashon Hwy SW & Burma Rd SW
75756,King County,E,SHL,YES,303 333,1,92.04233884601123,1.534038980766854,N 175th St & Meridian Ave N
76300,Bothell,S,BOT,YES,372E,0,91.98921538697162,1.5331535897828603,Kaysner Way & Woodinville Dr
9587,Seattle,W,SEA,YES,372E 44 49 70,0,91.44848916297646,1.5241414860496076,NE 43rd St & Brooklyn Ave NE
4489,Unknown,N,SEA,UNK,13,0,91.16121366497376,1.5193535610828959,Queen Anne Ave N & W Howe St
52303,Burien,N,BUR,YES,H,0,91.08535591255315,1.5180892652092193,Burien TC AcRd & SW 148th St
85630,Bellevue,S,BEL,NO,226 240 241 246 249,0,91.079972215665,1.51799953692775,108th Ave NE & NE 6th St
59282,Auburn,E,AUB,YES,165 181,1,91.01796266828997,1.5169660444714994,SE 320th St & 122nd Ave SE
35825,Seattle,N,SEA,YES,43 48,1,90.9731150403306,1.51621858400551,23rd Ave E & E John St
510,Seattle,W,SEA,YES,E,0,90.87444255219124,1.5145740425365206,S Washington St & 3rd Ave S
575,Seattle,N,SEA,YES,1 125N 13 14N 2 3 36 4 70 7N C D E,2,90.52462400961099,1.5087437334935165,3rd Ave & Pike St
37150,Seattle,N,SEA,YES,128,0,89.16985225858734,1.486164204309789,California Ave SW & SW Admiral Way
17710,Seattle,N,SEA,YES,345 365 40,1,89.16510830822592,1.486085138470432,College Way N & N 97th St
64592,Issaquah,S,ISS,NO,269 634N,0,89.05512303702888,1.484252050617148,Issaquah TC AcRd & Newport Way NW
340,Seattle,S,SEA,YES,101 102 113 150 162 177,2,89.00204998386367,1.483367499731061,2nd Ave & Marion St
76035,Unknown,S,BOT,NO,230,0,88.60999855698905,1.476833309283151,39th Ave SE & 243rd Pl SE
72294,Kirkland,E,KIR,YES,245,1,88.23695591056558,1.4706159318427596,NE 72nd Pl & 116th Ave NE
47230,King County,S,KC,YES,118,0,87.96964172889841,1.4661606954816402,Vashon Hwy SW & SW Burton Dr
57459,Sound Transit,S,KNT,NO,153 165 183 566E,0,87.95240434771266,1.465873405795211,Railroad Ave N & Smith St
75730,Shoreline,S,SHL,YES,E,2,87.8449718339582,1.4640828638993033,Aurora Ave N & N 192nd St
1215,Seattle,W,SEA,YES,550E,3,87.62568904877588,1.4604281508129313,Union St & 5th Ave
60903,SeaTac,W,STC,YES,156,1,87.5214399534384,1.45869066589064,S 176th St & 30th Ave S
10658,Federal Government,W,SEA,YES,62,0,86.4551931403749,1.440919885672915,NOAA AcRd & NOAA AcRd
59720,Renton,N,RNT,YES,102 148,0,86.22638640422896,1.4371064400704827,116th Ave SE & Edmonds Way SE
34910,Seattle,E,SEA,YES,50,1,86.01059374761006,1.433509895793501,S Genesee St & 36th Ave S
71328,Redmond,N,RED,YES,249 269 895EN,0,85.73166649063515,1.4288611081772524,Overlake P&R AcRd & 152nd Ave NE
55938,Renton,E,RNT,YES,101 102 148 160,2,85.45197394689812,1.4241995657816353,Lake Ave S & Shattuck Ave S
52030,King County,S,KC,YES,H,1,85.17141010557499,1.4195235017595833,15th Ave SW & SW Roxbury St
40125,Renton,W,RNT,YES,240,1,85.01248494883743,1.4168747491472904,NE Sunset Blvd & Duvall Ave NE
54842,Renton,S,RNT,YES,105,0,84.7878274071365,1.4131304567856084,Harrington Ave NE & NE 16th St
2550,Seattle,S,SEA,YES,2,1,84.24588885903323,1.4040981476505539,7th Ave W & W Pleasant Pl
46477,Renton,W,RNT,YES,107 148 F,1,84.16043234951769,1.4026738724919616,Renton TC AcRd & Burnett Ave S
64566,Issaquah,E,ISS,YES,554E 556E,0,83.9270140403048,1.3987835673384132,Issaquah Highlands P&R AcRd & 9th Ave NE
68438,Bellevue,S,BEL,YES,245 B,1,83.92507031006514,1.398751171834419,156th Ave NE & NE 10th St
60921,Tukwila,W,TUK,NO,A,0,83.83687206792767,1.3972812011321278,Tukwila LLR AcRd & Tukwila LLR AcRd
6950,Seattle,S,SEA,YES,E,1,83.75494937726825,1.3959158229544708,Aurora Ave N & N 145th St
73818,Kirkland,S,KIR,NO,239 245,0,83.57079779955492,1.3928466299925821,3rd St & Park Ln
4370,Seattle,W,SEA,YES,4,0,83.41743330110245,1.3902905550183742,Boston St & 1st Ave N
71355,Medina,W,MED,YES,255 257 311 542E 545E 556E 982EN 986EN,0,83.28890723255107,1.388148453875851,SR 520 Ramp & Evergreen Point Rd
2690,Seattle,N,SEA,YES,13 2,1,83.10344263436369,1.3850573772393948,1st Ave N & Mercer St
1558,Unknown,W,SEA,UNK,113 125 21E 56 57 C H,1,82.58382401078673,1.3763970668464454,Columbia St & Alaskan Way
47260,Highline Community College,W,DES,YES,156,1,82.52271182202904,1.3753785303671506,Highline College AcRd & S 240th St
390,Seattle,S,SEA,YES,101 102 150 162 177,2,82.3927257025408,1.3732120950423468,2nd Ave Ext S & S Jackson St
57784,Unknown,E,AUB,UNK,160,0,82.33944217870356,1.3723240363117262,2nd St SW & A St SW
45305,Renton,S,RNT,YES,105 153,1,82.24648160680147,1.3707746934466911,Burnett Ave S & S 3rd St
19898,Seattle,S,SEA,YES,21 773 C,1,82.01739640034164,1.3669566066723606,SW Avalon Way & SW Bradford St
19240,Seattle,S,SEA,YES,40,1,81.9128011263428,1.3652133521057133,24th Ave NW & NW 85th St
34544,Seattle,W,SEA,YES,106N 987E,1,81.45888306392894,1.3576480510654823,S Henderson St & Rainier Ave S
35110,Seattle,S,SEA,YES,50,0,80.98597973234584,1.3497663288724306,Seward Park Ave S & S Morgan St
56805,Renton,E,RNT,YES,111,0,80.72215389645031,1.3453692316075052,NE 4th St & Hoquiam Ave NE
75007,Shoreline,E,SHL,YES,331 348,1,80.55972924048793,1.342662154008132,NW Richmond Beach Rd & 1st Ave NW
76820,State Dept. of Transportation,N,LFP,YES,322 372E 522E 981EN,1,80.5363132906891,1.3422718881781515,Bothell Way NE & Lk Forest Park Mall AcRd
20250,Seattle,S,SEA,YES,C,1,80.29904637434248,1.3383174395723747,Fauntleroy Way SW & SW Barton St
76880,Kenmore,E,KEN,YES,372E 522E,1,80.12556175943784,1.3354260293239641,NE Bothell Way & 73rd Ave NE
71960,Redmond,S,RED,YES,221 224 542E,0,80.09564037755896,1.3349273396259826,Redmond Transit Center AcRd & NE 83rd St
11130,Seattle,E,SEA,YES,550E,0,79.7199841192472,1.3286664019874534,Pike St & 9th Ave
1540,Seattle,W,SEA,YES,3 4,0,79.64156225933883,1.3273593709889804,James St & 5th Ave
46766,King County,N,KC,YES,118,0,79.4030505952381,1.3233841765873016,Vashon Ferry Dock AcRd & 103rd Ave SW
59314,Tukwila,N,TUK,YES,F,0,78.64406958143702,1.3107344930239504,Andover Park W & Baker Blvd
80977,Auburn,W,AUB,YES,184,0,78.48348194918607,1.3080580324864346,17th St SE & J St SE
76374,Kenmore,S,KEN,YES,225 322 331,0,77.8411455858283,1.2973524264304717,Kenmore P&R AcRd & NE Bothell Way
10328,Seattle,W,SEA,YES,C,0,77.54727402743195,1.2924545671238659,Valley St & Fairview Ave N
76700,Seattle,S,SEA,YES,322 372E 522E 61,1,77.54168513011382,1.2923614188352304,Lake City Way NE & NE 130th St
39980,Seattle,S,SEA,YES,125 60,1,77.46446940102513,1.2910744900170854,25th Ave SW & SW Henderson St
11690,Seattle,N,SEA,YES,14,1,77.01444066934636,1.2835740111557725,Mount Rainier Dr S & 37th Pl S
1560,Seattle,E,SEA,YES,3 4,2,75.792497784780707,1.2632082964130118,James St & 3rd Ave
29380,Seattle,N,SEA,YES,43 48,0,75.55475045673523,1.2592458409455873,East Montlake Pl E & E Roanoke St
80485,Issaquah,E,ISS,YES,554E,0,75.0534296141683,1.2508904935694716,E Sunset Way & Rainier Blvd S
70538,Kirkland,W,KIR,YES,893,0,74.49461170142989,1.241576861690498,NE 80th St & 122nd Ave NE
70310,King County,N,BOT,YES,231 257 311,1,73.64496630669208,1.2274161051115346,Juanita Woodinville Way NE & 115th Ave NE
76376,Kenmore,E,KEN,YES,322N 331N,0,73.29675398450098,1.2216125664083497,Kenmore P&R AcRd & 73rd Ave NE
80438,Federal Way,E,FDY,NO,181 183 A,0,73.1461422158707,1.2191023702645116,Federal Way TC AcRd & 23rd Ave S
60670,Federal Way,N,FDY,YES,A,1,72.64778292905123,1.2107963821508538,Pacific Hwy S & S 312th St
60137,Renton,S,RNT,YES,102,0,72.15037064644369,1.2025061774407282,140th Way SE & SE 158th St
71828,Unknown,N,KC,YES,250,0,72.13516319830008,1.202252719971668,Avondale Pl NE & Avondale Rd NE
1073,Unknown,E,SEA,UNK,545E,0,71.64945427363641,1.1941575712272734,Olive Way & Boren Ave
57600,Auburn,W,AUB,YES,184,0,71.18355400476686,1.1863925667461144,41st St SE & A St SE
52306,Burien,S,BUR,YES,161 631 F,0,70.65703913373405,1.1776173188955674,Burien TC AcRd & SW 148th St
11191,Seattle,S,SEA,YES,60,0,69.83593851334697,1.163932308555783,10th Ave E & E Mercer St
46478,Renton,E,RNT,YES,240 F,1,69.80941512509256,1.163490252084876,Renton TC AcRd & Logan Ave S
16640,Shoreline,N,SHL,YES,346,0,69.73931007114291,1.1623218345190485,Meridian Ave N & N 163rd St
83760,Federal Way,W,FDY,YES,181 187,1,69.54446412687807,1.1590744021146344,S 320th St & Pacific Hwy S
11012,Seattle,E,SEA,YES,9E,0,69.14447359761388,1.1524078932935646,E Aloha St & Broadway E
14960,Seattle,N,SEA,YES,50 56 775,1,68.86994511821189,1.1478324186368647,Alki Ave SW & 61st Ave SW
75995,Woodinville,S,WDV,YES,231 311 522E,2,68.53666473033535,1.142277745505589,Woodinville P&R AcRd & NE 179th St
20910,Seattle,N,SEA,YES,31,0,68.49119950298017,1.1415199917163361,Condon Way W & W Crockett St
70691,Kirkland,N,KIR,YES,893 986E,0,68.375,1.1395833333333334,120th Ave NE & NE 80th St
76023,Bothell,N,BOT,YES,239,0,68.20170958936993,1.136695159822832,102nd Ave NE & E Riverside Dr
46465,Renton,N,RNT,YES,160,1,67.93304635925298,1.132217439320883,Burnett Ave S & S 2nd St
26715,Seattle,N,SEA,YES,40 C,0,66.39215411255411,1.1065359018759018,Westlake Ave N & Harrison St
600,Seattle,N,SEA,YES,1 124N 13 131N 132N 14 17E 2 21E 24 28E 3 33 4 40 5 62 C D E H,0,66.3164876740213,1.1052747945670218,3rd Ave & Virginia St
20041,Seattle,W,SEA,YES,C,0,65.57078723818286,1.0928464539697142,SW Alaska St & California Ave SW
56151,Seattle,S,SEA,YES,106 36,0,65.38717568332898,1.0897862613888163,Martin L King Jr Way S & S Myrtle St
10225,Seattle,S,SEA,YES,303 322 70,0,64.93276049957565,1.0822126749929275,Fairview Ave N & Thomas St
2580,Seattle,S,SEA,YES,2,1,64.70477057489663,1.0784128429149438,6th Ave W & W Crockett St
45648,Seattle,N,SEA,YES,50,0,64.46278931782089,1.0743798219636815,38th Ave S & S Myrtle St
52305,Burien,S,BUR,YES,131 132 165,0,64.11616269462054,1.068602711577009,Burien TC AcRd & SW 148th St
19862,Seattle,E,SEA,YES,C,2,63.353530117372166,1.0558921686228695,SW Alaska St & California Ave SW
26730,Seattle,N,SEA,YES,40 C,1,62.93323111462887,1.0488871852438144,Westlake Ave N & Mercer St
69874,King County,W,KIR,YES,225,0,62.413821506589755,1.0402303584431627,NE 132nd St & 84th Ave NE
16914,Seattle,W,SEA,YES,345 365,1,60.9978356432778,1.01663059405463,Northwest Hospital AcRd & Hospital AcRd
64593,Issaquah,S,ISS,NO,208,0,59.953226696277554,0.9992204449379593,Issaquah TC AcRd & NW Maple St
85230,King County,N,KC,YES,113 22,0,59.6475,0.994125,26th Ave SW & SW 100th St
61870,Federal Way,W,FDY,YES,187,0,59.10729938984334,0.985121656497389,SW 320th St & 21st Ave SW
29273,Seattle,E,SEA,YES,11 43 8,1,58.17584669335605,0.9695974448892675,E John St & 15th Ave E
11680,Seattle,N,SEA,YES,14,0,57.83384601280081,0.9638974335466802,Mount Rainier Dr S & S Hanford St
83751,Metro King County,W,FDY,YES,177 193E,3,55.87807002897171,0.9313011671495286,FedWay/S 320th St P&R AcRd & 25th Ave S
75992,Woodinville,E,WDV,YES,231 311 522E,0,54.870067915864304,0.9145011319310717,NE 179th St & Woodinville P&R AcRd
35317,Seattle,N,SEA,NO,345 348 365 40 61 67 75,0,54.43268021894146,0.9072113369823576,1st Ave NE & NE 103rd St
60136,Renton,N,RNT,YES,102,0,53.85911743433364,0.897651957238894,140th Way SE & SE 158th St
67652,Bellevue,W,BEL,NO,550E,0,53.75016968251452,0.8958361613752419,Bellevue TC AcRd & 110th Ave NE
2850,Seattle,E,SEA,YES,2,1,53.37352617360362,0.8895587695600604,Madrona Park & Lake Washington Blvd
42576,Metro King County,S,FDY,YES,181,0,53.32084435053427,0.8886807391755712,Twin Lakes P&R AcRd & SW 344th St
52200,Burien,S,BUR,YES,H,1,52.73588068590098,0.8789313447650163,Ambaum Blvd SW & SW 128th St
16330,King County,S,SHL,YES,989EN,0,51.77266628873772,0.8628777714789619,Meridian Ave N & N 150th St
85640,Bellevue,W,BEL,YES,240 550E 556E,0,51.62116150977282,0.860352691829547,NE 4th St & 108th Ave NE
22255,Seattle,W,SEA,YES,113,1,51.142422299670486,0.852373704994508,SW Roxbury St & Delridge Way SW
1710,Seattle,E,SEA,YES,D,1,51.015454158077,0.8502575693012833,Terrace St & 5th Ave
61420,Federal Way,W,FDY,YES,187,1,51.00268945021769,0.8500448241702948,SW 320th St & 47th Ave SW
19320,Seattle,S,SEA,YES,40,1,50.74889328316831,0.8458148880528051,24th Ave NW & NW 65th St
76305,Bothell,E,BOT,YES,230 239 372E 522E,3,50.57490236957912,0.8429150394929853,Campus AcRd & Campus Way NE
76730,Seattle,N,SEA,YES,322 372E 522E 61,1,50.470295775046935,0.8411715962507823,Lake City Way NE & NE 130th St
11370,Seattle,S,SEA,YES,10,0,49.73456308372601,0.8289093847287669,15th Ave E & E Galer St
71356,State Dept. of Transportation,W,YP,YES,255 257 311 542E 545E 556E 982EN 986EN,0,49.153529200911855,0.8192254866818642,SR 520 Ramp & 92nd Ave NE
46505,Renton,W,RNT,YES,F,1,47.781791690203576,0.7963631948367262,N 10th St & Park Ave N
99300,State Dept. of Transportation,E,RNT,YES,102 907,0,47.68510837184238,0.7947518061973731,Maple Valley Hwy & 131st Ave SE
16100,Shoreline,W,SHL,YES,303 331 E,2,47.02133402914745,0.7836889004857908,N 200th St & Ashworth Ave N
46476,Renton,W,RNT,YES,566E,1,47.013993637178615,0.7835665606196436,Renton TC AcRd & Logan Ave S
46463,Renton,N,RNT,YES,107,1,46.33623276678761,0.7722705461131268,Burnett Ave S & S 3rd St
16101,Shoreline,E,SHL,YES,346,1,45.61947068965259,0.7603245114942098,Aurora Village TC AcRd & Ashworth Ave N
57458,Sound Transit,S,KNT,NO,150 162,0,45.33953484955567,0.7556589141592611,Railroad Ave N & E Smith St
80437,Federal Way,E,FDY,NO,177 193E,0,44.161866704382376,0.7360311117397063,Federal Way TC AcRd & 23rd Ave S
22553,Seattle,E,SEA,YES,21 C,0,41.07619555014795,0.6846032591691326,SW Barton St & 35th Ave SW
18760,Seattle,W,SEA,YES,17E 44,0,41.06052813381245,0.6843421355635407,NW Market St & 28th Ave NW
59839,Renton,N,RNT,YES,101 160,0,40.783402132841,0.6797233688806833,Lake Ave S & S Grady Way
9650,Seattle,N,SEA,YES,372E 48N 67,1,39.50317279935384,0.658386213322564,11th Ave NE & NE 45th St
80431,Federal Way,W,FDY,NO,183 A,0,39.002600745653794,0.6500433457608966,Federal Way TC AcRd & 23rd Ave S
75400,King County,W,KC,YES,333,0,37.794834551211785,0.6299139091868631,N 145th St & Greenwood Ave N
45649,Seattle,E,SEA,YES,36,0,37.234445545065064,0.6205740924177511,S Myrtle St & 39th Ave S
11570,Seattle,N,SEA,YES,10,0,32.63809523809524,0.543968253968254,15th Ave E & E Republican St
82718,State Dept. of Transportation,S,BEL,YES,981E,1,29.84469696969697,0.49741161616161617,I-405 Ramp & SE 8th St
73227,Redmond,E,RED,YES,221 542E B,0,29.812313671999906,0.49687189453333175,NE 83rd St & 161st Ave NE
57451,Sound Transit,N,KNT,NO,160,0,28.969859028046912,0.4828309838007819,Kent Sounder Station AcRd & E Pioneer St
68404,Redmond,E,RED,YES,249 269 895EN,0,28.870892652102196,0.4811815442017033,NE 40th St & 156th Ave NE
65500,Bellevue,N,BEL,YES,240,1,27.95079493751201,0.4658465822918669,119th Ave SE & SE 58th St
72329,Redmond,N,RED,YES,554E,0,27.365722049403463,0.4560953674900577,NE Redmond Fall City Rd & 185th Ave NE
76222,Bothell,E,BOT,YES,239 372E 522E,1,27.20806918776884,0.4534678197961473,Beardslee Blvd & Sunrise Dr
23170,Seattle,S,SEA,YES,75,1,27.19628844990785,0.45327147416513086,5th Ave NE & NE 123rd St
45651,Seattle,W,SEA,YES,36 50,1,23.97733659234661,0.39962227653911014,S Othello St & Martin L King Jr Way S
68003,Bellevue,E,BEL,NO,B,1,23.725106740809096,0.3954184456801516,Bellevue TC AcRd & 108th Ave NE
13460,Seattle,N,SEA,YES,11 3,1,22.78561305095407,0.37976021751590117,Bellevue Ave & E Olive St
691,Unknown,N,SEA,UNK,101 102 150 550E,0,20.928782794045393,0.34881304656742324,4th Ave & Union St
12770,Seattle,S,SEA,YES,3 48 4N,1,18.88292682926829,0.3147154471544715,23rd Ave & E Cherry St
25755,Unknown,N,SEA,YES,255 542E 556E 982E 988EN,1,18.269148853758654,0.3044858142293109,Montlake Blvd NE & NE Pacific Pl
29420,Seattle,W,SEA,YES,255 271N 44 48 542E 556E,0,17.072778342311345,0.2845463057051891,NE Pacific St & 15th Ave NE
45303,Renton,S,RNT,YES,101 907,1,13.604772383210735,0.2267462063868456,Burnett Ave S & Renton TC AcRd
9050,Seattle,S,SEA,YES,7,0,10.389146825396825,0.1731524470899471,Waters Ave S & S Fletcher St
79877,Bellevue,W,BEL,YES,271,0,8.691592812200307,0.14485988020333845,SE 37th St & I-90 Ramp
85170,King County,N,BUR,YES,113,1,8.306703632211132,0.1384450605368522,26th Ave SW & SW 116th St
82687,Kirkland,S,KIR,NO,311 981EN,0,7.535272786743431,0.1255878797790572,I-405 Exp Ramp & NE 128th St
558,Seattle,N,SEA,YES,1 125 13 14N 2N 3 36N 4 70 7N C D E,0,4.9050624729051675,0.08175104121508613,3rd Ave & Seneca St
74580,Kirkland,N,KIR,YES,230 231 893N,0,-2.19469696969697,-0.03657828282828283,3rd St & 6th Ave
81294,Seattle,N,SEA,YES,981EN 982EN 986EN 987EN 988EN 989EN,0,-2.546578996237084,-0.042442983270618066,1st Ave NE & NE 140th St
1404,Unknown,E,SEA,UNK,E,0,-6.228674680047935,-0.10381124466746558,S Washington St & 3rd Ave S
23421,Seattle,S,SEA,YES,522E 67,1,-9.688189941048469,-0.1614698323508078,Roosevelt Way NE & NE 66th St
99254,Metro King County,N,SEA,YES,101 102 150 177,1,-20.41521095457607,-0.3402535159096012,SODO Busway AcRd & S Lander St
1040,Seattle,E,SEA,YES,101N 102N 111N 150N 177N 212N 218N,2,-27.569494057906617,-0.45949156763177695,Olive Way & 6th Ave
32013,Seattle,N,SEA,YES,57,0,-33.954881612640236,-0.5659146935440039,44th Ave SW & 44th Ave SW
1570,Seattle,E,SEA,YES,3 4,1,-36.512366959082655,-0.6085394493180443,James St & 5th Ave
25798,Seattle,N,SEA,YES,372E 982EN 986EN 987EN 988EN 989EN,1,-36.52459591470097,-0.6087432652450161,25th Ave NE & NE 80th St
5880,Seattle,S,SEA,YES,5,1,-39.77445849918915,-0.6629076416531525,Phinney Ave N & N 65th St
71347,Unknown,S,RED,NO,982E,0,-50.84444444444444,-0.8474074074074074,Redmond Tech Station AcRd & 156th Ave NE
39530,Seattle,S,SEA,YES,57,0,-51.40182020548633,-0.8566970034247722,55th Ave SW & SW Dakota St
12841,Seattle,S,SEA,YES,322,0,-57.03369027493342,-0.9505615045822237,12th Ave & E Alder St
10325,Seattle,N,SEA,YES,70 C,1,-64.15443371582597,-1.0692405619304328,Fairview Ave N & Valley St
70694,Kirkland,E,KIR,YES,893 895E 986E,0,-70.04942851198041,-1.1674904751996735,NE 80th St & 120th Ave NE
1010,Seattle,E,SEA,NO,111 177,0,-85.2754514014944,-1.4212575233582398,Howell St & Minor Ave
9586,Seattle,W,SEA,YES,48,0,-89.19968813060096,-1.4866614688433493,NE 50th St & University Way NE
70521,Kirkland,E,KIR,YES,893,0,-110.45189393939394,-1.840864898989899,Forbes Creek Dr & 108th Ave NE
70515,Kirkland,E,KIR,YES,893,0,-141.43977272727273,-2.3573295454545455,NE 112th St & 120th Ave NE
29431,Seattle,S,SEA,YES,79,0,-145.76884196025856,-2.4294806993376428,15th Ave NE & NE Pacific St
71260,Redmond,W,RED,YES,249 895E,0,-163.55416666666667,-2.725902777777778,NE 24th St & 173rd Ave NE
29455,Seattle,W,SEA,YES,44,1,-169.02782315337984,-2.817130385889664,NE 45th St & 9th Ave NE
64760,Bellevue,W,BEL,YES,241 989EN,0,-455.656746031746,-7.594279100529101,SE Allen Rd & SE Newport Way
64790,Bellevue,S,BEL,YES,240 245 989E,1,-480.41031746031746,-8.006838624338624,Factoria Blvd SE & Coal Creek Pkwy SE
65570,Bellevue,S,BEL,YES,240,0,-738.0229786083053,-12.300382976805087,119th Ave SE & Coal Creek Pkwy SE
65630,Bellevue,S,BEL,YES,240,1,-922.1271035250168,-15.36878505875028,119th Ave SE & SE 58th St
80484,Issaquah,N,ISS,YES,208,0,-925.5248457248457,-15.425414095414094,Front St S & SE Andrews St
